title;type of estate;City;Region;Total Price;Price per Square Meter;Area;Room number;Build_year;Floor_no;Heating;MarketType;Building_ownership;Extras_types;Rent;Equipment_types;Construction_status;Building_type;Building_material;Media_types;Security_types;latitude;longitude
Piękne mieszkanie przy Ul. Marszałkowskiej;FLAT;Warszawa;Śródmieście;960000;20000;48;TWO;No data;floor_2;No data;secondary;full_ownership;balcony, garage;No data;dishwasher, fridge, furniture, oven, stove, tv, washing_machine;No data;No data;No data;No data;No data;52.23773;21.00754
Stara Ochota, 36,5m2 – doskonała lokalizacja!;FLAT;Warszawa;Ochota;499000;13671;36.5;ONE;1953;floor_4;urban;secondary;full_ownership;basement;450;fridge, oven, stove, washing_machine;to_completion;tenement;brick;cable-television, internet;entryphone, monitoring;52.2140805;20.9741655
Sprzedam 3 pokoje 53m2 Bródno - bezpośrednio;FLAT;Warszawa;Targówek;499000;9415;53;THREE;1975;floor_1;urban;secondary;co_operative_ownership_with_a_land_and_mortgage_registe;balcony, basement, garage, lift;700;fridge, oven, stove;ready_to_use;block;concrete_plate;cable-television, internet, phone;anti_burglary_door;52.2898637;21.0297177
Dwustronne Słoneczne Garaż/Komórka;FLAT;Warszawa;Ursus;814000;10486;77.63;THREE;2010;floor_2;No data;secondary;full_ownership;balcony, garage, lift, terrace, usable_room;700;furniture;ready_to_use;block;other;cable-television, internet;anti_burglary_door, closed_area, entryphone, monitoring;52.18983;20.9113
Dwustronne Słoneczne Dwa Balkony;FLAT;Warszawa;Włochy;815000;11254;72.42;THREE;2009;floor_2;No data;secondary;No data;balcony, garage;No data;No data;No data;No data;No data;No data;No data;52.20893;20.89386
Mieszkanie/Apartament, 3 pokoje centrum + garaż;FLAT;Warszawa;Wola;1060000;15940;66.5;THREE;1968;floor_10;urban;secondary;full_ownership;balcony, basement, garage, lift, separate_kitchen;750;dishwasher, fridge, furniture, oven, stove, washing_machine;ready_to_use;block;concrete_plate;cable-television, internet;entryphone, monitoring;52.22648234803318;20.989451213226275
Przytulne mieszkanie po generalnym remoncie;FLAT;Warszawa;Praga-Południe;470000;13056;36;TWO;1966;ground_floor;urban;secondary;full_ownership;basement;520;furniture;No data;block;brick;No data;No data;52.2462955;21.1048869
Twoje pierwsze mieszkanie w Warszawie;FLAT;Warszawa;Ursus;475000;10000;47.5;TWO;2001;floor_6;urban;secondary;full_ownership;balcony, garage, lift;800;fridge, furniture, oven, stove, washing_machine;ready_to_use;block;concrete;cable-television, internet;closed_area, entryphone;52.185521;20.867976
2 pokoje do remontu - Bemowo okazja!;FLAT;Warszawa;Bemowo;399000;10902;36.6;TWO;1980;floor_1;No data;secondary;co_operative_ownership;balcony, basement, lift, separate_kitchen;570;No data;to_renovation;block;concrete_plate;No data;entryphone;52.2498094;20.9145184
ul. Pięciolinii, 85m2, Bezpośrednio, Blisko metro;FLAT;Warszawa;Ursynów;910000;10706;85;FOUR;1979;floor_4;urban;secondary;co_operative_ownership;balcony, basement, separate_kitchen;No data;No data;ready_to_use;block;concrete_plate;cable-television, internet, phone;entryphone;52.156384043135745;21.026131632818622
3 pokoje | Saska Kępa | widna kuchnia;FLAT;Warszawa;Praga-Południe;669042;11990;55.8;THREE;1962;floor_3;urban;secondary;full_ownership;basement;856;furniture;to_renovation;block;other;No data;No data;52.23078;21.06375
2 pokoje z oddzielną windą kuchnią;FLAT;Warszawa;Śródmieście;435000;14500;30;TWO;1973;floor_3;urban;secondary;No data;No data;580;furniture;ready_to_use;block;other;No data;No data;52.21736;21.04463
2 pokoje na Powiślu;FLAT;Warszawa;Śródmieście;590000;16389;36;TWO;1965;floor_3;urban;secondary;co_operative_ownership_with_a_land_and_mortgage_registe;balcony, lift;630;No data;to_completion;block;other;No data;No data;52.23661;21.02752
OKAZJA! Obok Factory Ursus! Klucze na wiosnę!;FLAT;Warszawa;Ursus;399990;10254;39.01;TWO;2023;floor_1;urban;secondary;full_ownership;balcony, garage, lift;350;No data;to_completion;block;brick;cable-television, internet, phone;anti_burglary_door, entryphone, monitoring;52.20498085723644;20.87927783967284
"Property Tour" na YouTube - link w ogłoszeniu!;FLAT;Warszawa;Wilanów;9500000;33808;281;FIVE;2021;floor_2;No data;secondary;full_ownership;garage, terrace, usable_room;No data;dishwasher, fridge, furniture, oven, stove, tv, washing_machine;ready_to_use;No data;No data;No data;No data;52.17538;21.08207
Apartament 168m2 z widokiem na wodę!;FLAT;Warszawa;Mokotów;6000000;35714;168;FOUR;2018;floor_2;No data;secondary;No data;garage, lift, terrace;No data;No data;No data;No data;No data;No data;closed_area, entryphone, monitoring;52.18812;21.03922
2-pokojowe mieszkanie 45m2 + balkon Bezpośrednio;FLAT;Warszawa;Rembertów;447084;9900;45.16;TWO;2023;floor_5;No data;primary;full_ownership;garage, balcony, lift;No data;No data;to_completion;No data;No data;No data;closed_area;52.2745847;21.1174715
BEZPOŚREDNIO! Mieszkanie w rewitalizowanej kamieni;FLAT;Warszawa;Włochy;368000;11987;30.7;ONE;1935;floor_1;boiler_room;secondary;full_ownership;No data;300;No data;to_completion;tenement;brick;cable-television, internet;anti_burglary_door, closed_area, entryphone, monitoring;52.2086634;20.9131541
Przytulna kawalerka w doskonałej lokalizacji;FLAT;Warszawa;Śródmieście;565000;20179;28;ONE;1965;floor_5;urban;secondary;co_operative_ownership_with_a_land_and_mortgage_registe;basement, lift, separate_kitchen;260;dishwasher, fridge, washing_machine;ready_to_use;block;concrete_plate;cable-television, internet;anti_burglary_door, entryphone, monitoring;52.217675;21.232198
Słoneczne 4 pokoje na Bemowie;FLAT;Warszawa;Bemowo;750000;10417;72;FOUR;1976;floor_higher_10;urban;secondary;co_operative_ownership_with_a_land_and_mortgage_registe;balcony, basement, lift, separate_kitchen;800;No data;ready_to_use;block;reinforced_concrete;cable-television;No data;52.24091;20.91133
3-pokojowy apartament przy metrze Ursynów;FLAT;Warszawa;Ursynów;999000;13972;71.5;THREE;2002;floor_2;urban;secondary;full_ownership;balcony, garage;600;dishwasher, fridge, furniture, oven;ready_to_use;apartment;brick;No data;No data;52.13785;21.02912
Centrum - 3 pokoje z miejscem parkingowym;FLAT;Warszawa;Śródmieście;968000;16982;57;THREE;1969;floor_3;urban;secondary;co_operative_ownership;balcony, basement, garage, lift, separate_kitchen;480;dishwasher, fridge, furniture, oven, stove;ready_to_use;block;brick;cable-television, internet;anti_burglary_door, entryphone, monitoring;52.23313;21.019
Moja Północna II | mieszkanie B 23;FLAT;Warszawa;Białołęka;419520;13800;30.4;TWO;2023;floor_2;No data;primary;No data;balcony, garage, lift;No data;No data;to_completion;No data;No data;internet, phone;entryphone;52.31832;20.9607
Wyjątkowe Mieszkanie Eolian Park LIP-3-47;FLAT;Warszawa;Ursus;560883;9300;60.31;TWO;2023;floor_3;No data;primary;No data;balcony, garage, lift;No data;No data;No data;No data;No data;No data;No data;52.19580602658861;20.90674769311525
Warszawa Mieszkanie na sprzedaż;FLAT;Warszawa;Białołęka;380000;9383;40.5;ONE;2014;floor_1;urban;secondary;full_ownership;balcony;417;furniture;No data;block;other;cable-television, internet;closed_area, entryphone, monitoring;52.3437054;21.0548154
Bezpośrednio pl. Inwalidów gotowe do zamieszkania;FLAT;Warszawa;Żoliborz;900000;16981;53;TWO;No data;floor_3;urban;secondary;full_ownership;basement, separate_kitchen;675;dishwasher, fridge, furniture, oven, stove, washing_machine;ready_to_use;tenement;brick;cable-television, internet;anti_burglary_door, entryphone, roller_shutters;52.26433558076956;20.98946280824278
Atrakcyjne 2-pokojowe mieszkanie. Basen na osiedlu;FLAT;Warszawa;Ursus;433000;9312;46.5;TWO;2002;floor_3;urban;secondary;full_ownership;basement, garage, lift;590;No data;ready_to_use;block;other;cable-television, internet;closed_area, entryphone, monitoring;52.18329;20.8685
Sprzedam mieszkanie - ul. Syreny 9. Metro Młynów;FLAT;Warszawa;Wola;670000;12642;53;THREE;No data;floor_1;urban;secondary;No data;No data;600;No data;to_completion;block;No data;cable-television, internet, phone;anti_burglary_door, entryphone;52.2380747;20.9621367
Bezpośrednio NOWE mieszkanie z widokiem na Wisłę;FLAT;Warszawa;Śródmieście;5600000;40000;140;FOUR;No data;floor_3;No data;secondary;full_ownership;air_conditioning, balcony, garage, lift, terrace;1600;dishwasher, fridge, furniture, oven, stove, tv, washing_machine;ready_to_use;apartment;No data;cable-television, internet, phone;anti_burglary_door, entryphone, monitoring;52.2301846;21.0414263
Metro Trocka: do własnej aranżacji, grunt ure;FLAT;Warszawa;Targówek;530000;9925;53.4;THREE;1970;floor_5;urban;secondary;full_ownership;balcony, basement, lift;570;furniture;to_renovation;block;other;cable-television, internet, phone;anti_burglary_door, entryphone, monitoring;52.27534;21.05563
Luksusowy Apartament 2 Pokoje;FLAT;Warszawa;Wola;1190000;25460;46.74;TWO;2019;floor_6;No data;secondary;full_ownership;air_conditioning, garage, lift;600;dishwasher, fridge, furniture, oven, stove, tv, washing_machine;ready_to_use;apartment;No data;cable-television, internet, phone;anti_burglary_door, closed_area, entryphone, monitoring;52.2297544;20.9806246
Tuż obok Metra które powstanie Praga Południe;FLAT;Warszawa;Praga-Południe;465000;9647;48.2;TWO;1980;floor_5;No data;secondary;No data;balcony, basement;No data;No data;to_renovation;No data;No data;No data;No data;52.23777;21.07731
3 pokoje na Ursynowie blisko metra;FLAT;Warszawa;Ursynów;600000;9231;65;THREE;1988;floor_2;urban;secondary;co_operative_ownership;basement, balcony;1100;No data;to_renovation;block;breezeblock;No data;No data;52.13908186534;21.056682033913
Zamieszkaj w cichej i pięknej okolicy.;FLAT;Warszawa;Białołęka;565000;8333;67.8;THREE;2010;floor_2;urban;secondary;full_ownership;balcony, garage;720;dishwasher, fridge, furniture, oven, stove, washing_machine;ready_to_use;block;brick;No data;anti_burglary_door, closed_area, entryphone, monitoring;52.36031;21.03529
Segment 115 m2;FLAT;Warszawa;Ursus;889000;7745;114.79;FOUR;2022;No data;No data;primary;full_ownership;garage, garden, two_storey;No data;No data;No data;ribbon;breezeblock;No data;closed_area;52.19512;20.88379
3 pokojowe na zielonych Bielanach. Ciche.;FLAT;Warszawa;Bielany;548000;10745;51;THREE;1974;ground_floor;urban;secondary;full_ownership;balcony, basement, lift;530;No data;No data;block;concrete_plate;No data;entryphone;52.2933234;20.928664
2 pok przytulne mieszkanie Włochy Krańcowa 36m2;FLAT;Warszawa;Włochy;520000;14444;36;TWO;2012;floor_3;urban;secondary;full_ownership;balcony, basement, lift, separate_kitchen;550;fridge, furniture, oven, stove, washing_machine;ready_to_use;block;breezeblock;cable-television, internet, phone;anti_burglary_door, closed_area, entryphone, monitoring, roller_shutters;52.19622214554899;20.923302045754987
SPRZEDAM | 3 POKOJE | OFERTA PRYWATNA;FLAT;Warszawa;Ursus;649900;12498;52;THREE;2013;floor_1;urban;secondary;full_ownership;garage, lift;600;dishwasher, fridge, furniture, oven, stove, washing_machine;ready_to_use;block;No data;cable-television, internet;closed_area, entryphone, monitoring;52.2069706;20.8669994
Bezpośrednio, Komfortowe 42 m2, Gocław;FLAT;Warszawa;Praga-Południe;540000;12857;42;TWO;No data;floor_7;urban;secondary;co_operative_ownership;balcony, basement, lift, separate_kitchen;370;furniture, oven, stove;ready_to_use;block;concrete_plate;No data;entryphone;52.2201541;21.0987282
Sprzedam -zaciszne 50m2 po remoncie;FLAT;Warszawa;Ursus;529000;10580;50;THREE;1952;floor_3;urban;secondary;full_ownership;basement, garage, usable_room;550;No data;ready_to_use;block;brick;No data;No data;52.193289;20.892144
Tarchomin, Bezpośredni, Gotowe. 3pok, 52m2, Balkon;FLAT;Warszawa;Białołęka;510000;9796;52.06;TWO;2020;floor_1;No data;primary;No data;No data;No data;No data;No data;No data;No data;No data;No data;52.3448225;20.941277
2pok. 37m2 na Ochocie;FLAT;Warszawa;Ochota;500000;13514;37;TWO;No data;floor_7;urban;secondary;full_ownership;balcony, basement, lift;550;furniture;No data;No data;No data;cable-television;alarm, anti_burglary_door, entryphone;52.2145328;20.969015
Rezerwacja! Rezerwacja! Rezerwacja!;FLAT;Warszawa;Śródmieście;880000;14667;60;THREE;No data;floor_3;urban;secondary;full_ownership;basement, separate_kitchen;700;fridge, furniture, oven, stove, washing_machine;ready_to_use;tenement;brick;No data;closed_area, entryphone, monitoring;52.23614;21.00817
Łowicka, Mokotów, Kawalerka - Bezpośrednio;FLAT;Warszawa;Mokotów;499000;17821;28;ONE;1950;floor_2;urban;secondary;co_operative_ownership_with_a_land_and_mortgage_registe;basement;550;dishwasher, fridge, furniture, stove, washing_machine;ready_to_use;tenement;brick;cable-television, internet, phone;anti_burglary_door, entryphone;52.201750192661926;21.006067148132338
Bezpośrednio, 2 pokoje niedaleko metra;FLAT;Warszawa;Praga-Północ;569000;16735;34;TWO;1953;floor_3;urban;secondary;full_ownership;balcony, basement;350;fridge, furniture, oven, stove;ready_to_use;tenement;brick;cable-television, internet, phone;anti_burglary_door, entryphone, monitoring;52.2633;21.02832
3-pokojowe mieszkanie 70m2 + loggia Bez Prowizji;FLAT;Warszawa;Bielany;842000;12022;70.04;THREE;2022;floor_1;No data;primary;full_ownership;garage, lift;No data;No data;to_completion;No data;No data;No data;closed_area;52.302160658005;20.927214581104
Dwupokojowe Mieszkanie w okolicy Placu Bankowego;FLAT;Warszawa;Wola;750000;14666;51.14;TWO;1951;floor_2;urban;secondary;full_ownership;No data;684;No data;to_renovation;block;brick;internet;anti_burglary_door, entryphone;52.24399;20.99694
Oddanie IIIkw 2023 / Widna kuchnia 2 pokoje;FLAT;Warszawa;Mokotów;547000;12816;42.68;TWO;2023;floor_5;urban;primary;full_ownership;balcony, garage, lift, separate_kitchen;No data;No data;No data;block;brick;cable-television, internet, phone;closed_area, entryphone, monitoring;52.20417;21.00083
Bez Prowizji | 2 pok | bez Pcc | Białołęka;FLAT;Warszawa;Białołęka;399999;8430;47.45;TWO;2022;floor_1;urban;primary;full_ownership;balcony, garage, lift;400;No data;ready_to_use;block;concrete;cable-television, internet, phone;anti_burglary_door, closed_area, entryphone, monitoring;52.3283;21.0387
Mieszkanie przy Ogrodzie Saskim;FLAT;Warszawa;Śródmieście;999000;18500;54;TWO;1957;floor_3;urban;secondary;full_ownership;basement, lift, separate_kitchen;760;No data;ready_to_use;tenement;brick;No data;No data;52.238009033102394;21.00764044970704
Wum*Rozkładowe*Niski blok*Balkon*;FLAT;Warszawa;Włochy;599000;10153;59;THREE;1970;floor_4;urban;secondary;full_ownership;balcony, basement;700;fridge, furniture, oven, stove;to_completion;block;concrete_plate;cable-television, internet, phone;entryphone, monitoring;52.19319;20.97183
2-pokojowe mieszkanie 46m2 + balkon Bezpośrednio;FLAT;Warszawa;Bielany;640000;13787;46.42;TWO;2022;floor_2;No data;primary;full_ownership;garage, balcony, lift;No data;No data;to_completion;No data;No data;No data;closed_area;52.302160658005;20.927214581104
Bez prowizji / ogródek / 15 min do centrum;FLAT;Warszawa;Ursus;902000;7343;122.84;FOUR;2022;floor_1;gas;primary;full_ownership;garage, garden, two_storey;No data;No data;No data;block;No data;No data;closed_area, entryphone, monitoring;52.19832;20.89021
4-pokojowe mieszkanie/ 2 duże balkony/garaż;FLAT;Warszawa;Ursus;810000;10672;75.9;FOUR;2002;floor_1;boiler_room;secondary;full_ownership;balcony, garage, lift, separate_kitchen;1400;dishwasher, fridge, furniture, oven, stove, tv, washing_machine;ready_to_use;apartment;cellular_concrete;cable-television, internet;anti_burglary_door, closed_area, entryphone, monitoring;52.18955772612314;20.890312225903337
2 pokoje przy Polach Mokotowskich;FLAT;Warszawa;Mokotów;680000;15814;43;TWO;1962;floor_2;other;secondary;co_operative_ownership;basement, garage;600;furniture;No data;block;No data;cable-television, internet;No data;52.2088056;21.001838
Wyjątkowy loft z widokiem na panoramę centrum;FLAT;Warszawa;Wola;899650;15999;56.23;THREE;2022;floor_9;urban;secondary;full_ownership;basement, garage, lift, terrace, two_storey, usable_room;560;No data;to_completion;loft;concrete;cable-television, internet, phone;anti_burglary_door, entryphone, monitoring;52.231839436891;20.93731470666
Wyjątkowy loft z balkonem, cisza, widok na zieleń!;FLAT;Warszawa;Wola;798400;14199;56.23;THREE;2022;floor_3;urban;secondary;full_ownership;balcony, garage, lift, terrace, two_storey, usable_room;530;No data;to_completion;loft;concrete;cable-television, internet, phone;anti_burglary_door, entryphone, monitoring;52.231839436891;20.93731470666
Mieszkanie czteropokojowe na Odolanach;FLAT;Warszawa;Wola;1350000;17733;76.13;FOUR;2017;floor_6;urban;secondary;full_ownership;balcony, lift, separate_kitchen;No data;No data;ready_to_use;block;cellular_concrete;cable-television;closed_area, monitoring;52.2274;20.9538
5 mieszkań na 1Kw/ Po remoncie blisko Metra;FLAT;Warszawa;Praga-Północ;1600000;8163;196;FIVE;No data;floor_4;urban;secondary;full_ownership;No data;3600;fridge, furniture, oven, stove, washing_machine;ready_to_use;house;brick;No data;entryphone, monitoring;52.2489516;21.0406548
Cesja kawalerki na Woli;FLAT;Warszawa;Wola;578000;17967;32.17;ONE;2021;floor_8;urban;primary;No data;balcony, garage, lift;No data;dishwasher, fridge, furniture, oven, stove;ready_to_use;apartment;other;No data;anti_burglary_door, entryphone, monitoring;52.22441;20.94515
Na Start | 2pok | DWA balkony | LUB Inwestycyjne!;FLAT;Warszawa;Wilanów;895000;15982;56;TWO;2011;floor_3;urban;secondary;full_ownership;balcony, lift, separate_kitchen;600;dishwasher, fridge, furniture, oven, stove, tv, washing_machine;ready_to_use;apartment;reinforced_concrete;cable-television, internet, phone;alarm, anti_burglary_door, closed_area, entryphone, monitoring;52.1608237;21.0780113
Pracujący apartament z tarasem przy Grzybowskiej!;FLAT;Warszawa;Wesoła;690000;24433;28.24;ONE;2022;floor_2;No data;secondary;full_ownership;air_conditioning, balcony, lift, terrace;No data;fridge, furniture, stove, tv;ready_to_use;apartment;No data;No data;closed_area;52.23424776182207;20.989391440475487
Miłe mieszkanie na Żoliborzu;FLAT;Warszawa;Żoliborz;630000;16579;38;TWO;1960;floor_5;urban;secondary;No data;balcony, basement, lift;No data;dishwasher, fridge, furniture, oven, stove, washing_machine;ready_to_use;block;other;cable-television, internet;anti_burglary_door, entryphone, monitoring;52.26999;20.96649
Bez Prowizji | 3 pokoje | bez Pcc | wykończone |;FLAT;Warszawa;Białołęka;569999;11633;49;THREE;2022;floor_1;urban;secondary;full_ownership;balcony, basement, garage, lift, usable_room;450;furniture;ready_to_use;block;concrete;cable-television, internet, phone;anti_burglary_door, closed_area, entryphone, monitoring;52.3309;21.0461
Apartament z dużym tarasem na bliskiej Woli;FLAT;Warszawa;Wola;1850000;17130;108;THREE;2008;floor_8;urban;secondary;full_ownership;balcony, garage, lift, two_storey;900;dishwasher, fridge, furniture, oven, stove, washing_machine;ready_to_use;apartment;cellular_concrete;cable-television, internet;anti_burglary_door, entryphone, monitoring;52.23040330999678;20.971030927352892
Mieszkanie w najpiękniejszej kamienicy w Warszawie;FLAT;Warszawa;Śródmieście;1220000;19974;61.08;TWO;1935;floor_2;urban;secondary;full_ownership;balcony, lift;900;furniture;No data;tenement;No data;No data;anti_burglary_door, closed_area, entryphone, monitoring;52.226928;21.0125728
Mieszkanie 60,1 m2 | 2 pokoje | BEZPOŚREDNIO;FLAT;Warszawa;Praga-Południe;781000;12995;60.1;TWO;2000;floor_2;urban;secondary;co_operative_ownership;balcony, basement, garage;No data;No data;ready_to_use;block;No data;No data;closed_area, entryphone, monitoring;52.2312959;21.0862978
Żoliborz Park Kellera gotowe 3 pok. I piętro +balk;FLAT;Warszawa;Bielany;1116220;17000;65.66;THREE;2021;floor_1;boiler_room;primary;full_ownership;balcony, garage, lift;10;No data;to_completion;apartment;silikat;cable-television, internet, phone;anti_burglary_door, closed_area, entryphone, roller_shutters;52.23614;21.00817
Bezposrednio 3/4 pokoje,osiedle strzeżone,metro;FLAT;Warszawa;Bemowo;799900;12547;63.75;THREE;2005;floor_2;urban;secondary;full_ownership;balcony, garage, lift, separate_kitchen;No data;fridge, furniture, oven, stove, tv, washing_machine;ready_to_use;apartment;other;cable-television, internet;closed_area, entryphone, monitoring;52.2524675;20.923903
Kawalerka 27m2 idealna pod inwestycje na Woli;FLAT;Warszawa;Wola;458999;17000;27;ONE;1980;floor_higher_10;urban;secondary;co_operative_ownership;balcony, basement, lift;500;furniture;No data;block;No data;cable-television, internet;alarm, anti_burglary_door, entryphone, roller_shutters;52.2347765;20.9907127
Kawalerka na sprzedaż, Hoża;FLAT;Warszawa;Śródmieście;560000;23431;23.9;ONE;1961;floor_4;urban;secondary;full_ownership;basement, lift, usable_room;400;furniture;ready_to_use;block;No data;No data;No data;52.22657725;21.01641624
METRO | Widne | Rozkładowe;FLAT;Warszawa;Bielany;740000;11455;64.6;FOUR;1979;floor_6;urban;secondary;co_operative_ownership_with_a_land_and_mortgage_registe;balcony, basement, lift;732;fridge, furniture, oven, stove;ready_to_use;block;concrete_plate;cable-television, internet, phone;anti_burglary_door, entryphone;52.29332;20.92866
Trzypokojowe mieszkanie na Gocławiu;FLAT;Warszawa;Praga-Południe;780000;11437;68.2;THREE;1995;floor_1;urban;secondary;co_operative_ownership_with_a_land_and_mortgage_registe;balcony, basement, lift;800;dishwasher, fridge, oven, stove;ready_to_use;block;No data;cable-television, internet, phone;anti_burglary_door, entryphone, roller_shutters;52.2293443;21.0980687
Kawalerka na Mokotowie;FLAT;Warszawa;Mokotów;495000;15968;31;ONE;1973;ground_floor;urban;secondary;full_ownership;No data;450;No data;No data;block;No data;internet;anti_burglary_door, entryphone;52.166088;21.006868
Marywilska | Warszawa | Kawalerka | 2018r;FLAT;Warszawa;Białołęka;399999;12870;31.08;ONE;2018;floor_3;urban;secondary;full_ownership;balcony, basement, garage, lift, separate_kitchen;400;furniture, washing_machine;ready_to_use;block;concrete;cable-television, internet, phone;anti_burglary_door, closed_area, entryphone, monitoring;52.3192;20.9996
Dywizjonu 303, cicha oklica, blisko metra;FLAT;Warszawa;Bemowo;620000;12518;49.53;TWO;2010;ground_floor;urban;secondary;full_ownership;balcony, garage, lift, separate_kitchen;600;dishwasher, fridge, furniture, oven, stove, washing_machine;ready_to_use;block;silikat;cable-television, internet;closed_area, entryphone, monitoring;52.246165727185264;20.902746237512225
3-pokojowe mieszkanie 68m2 + loggia Bez Prowizji;FLAT;Warszawa;Mokotów;953120;14000;68.08;THREE;2024;floor_1;No data;primary;full_ownership;garage, lift;No data;No data;to_completion;No data;No data;No data;closed_area;52.209558323492;21.064195704369
3pok., 55m2, osiedle Aurora, Warszawa Włochy;FLAT;Warszawa;Włochy;655000;11913;54.98;THREE;2023;floor_6;No data;secondary;full_ownership;balcony, garage, lift, separate_kitchen;No data;No data;to_completion;No data;No data;No data;No data;52.190041;20.9271919
Przytulne 36m2, 2-pokojowe, gotowe do wejścia!;FLAT;Warszawa;Praga-Południe;420000;11667;36;TWO;1964;floor_4;urban;secondary;full_ownership;basement;450;dishwasher, fridge, furniture, oven, stove, washing_machine;ready_to_use;block;other;No data;entryphone;52.24886;21.09341
4-pokojowe mieszkanie 85m2 + balkon;FLAT;Warszawa;Wola;1558000;18271;85.27;FOUR;2023;floor_5;No data;primary;full_ownership;garage, balcony, lift;No data;No data;to_completion;No data;No data;No data;No data;52.223824273231;20.971056233731
Mieszkanie 3 pokojowe 51,7m2 z balkonem i tarasem;FLAT;Warszawa;Wola;900000;17408;51.7;THREE;2016;floor_6;urban;secondary;full_ownership;air_conditioning, balcony, basement, garage, lift, separate_kitchen, terrace;600;dishwasher, fridge, furniture, oven, stove, tv, washing_machine;ready_to_use;block;reinforced_concrete;cable-television, internet;anti_burglary_door, closed_area, entryphone, monitoring;52.221254542939086;20.934986619018535
3pokoje cicha okolica metro Ulrychów Bezpośrednio!;FLAT;Warszawa;Wola;790000;14852;53.19;THREE;2010;floor_5;urban;secondary;full_ownership;air_conditioning, balcony, garage, lift;510;dishwasher, fridge, furniture, oven, stove, washing_machine;ready_to_use;block;No data;cable-television, internet;entryphone, monitoring;52.239477320061305;20.92662427490233
Nowe gustownie wykończone 4 pokoje, 2 łazienki;FLAT;Warszawa;Mokotów;1295000;14800;87.5;ONE;2021;floor_4;urban;secondary;full_ownership;balcony, lift, terrace;No data;No data;No data;No data;No data;cable-television, internet;No data;52.18125;21.0455
Apartamentowiec - blisko Galeria Mokotów, lotnisko;FLAT;Warszawa;Mokotów;1450000;14434;100.46;THREE;2014;floor_2;urban;secondary;full_ownership;balcony, basement, garage, lift;1200;No data;No data;No data;No data;cable-television, internet;No data;52.1764506;20.9935391
Nowe Super gustownie wykończone 2 pokoje;FLAT;Warszawa;Mokotów;850000;16667;51;TWO;2021;floor_1;urban;secondary;full_ownership;balcony, lift;No data;No data;No data;No data;No data;cable-television, internet;No data;52.18125;21.0455
Mieszkanie, 55 m², Warszawa;FLAT;Warszawa;Centrum;1090000;19818;55;TWO;1915;floor_4;No data;secondary;No data;balcony, lift;No data;No data;No data;tenement;No data;No data;No data;52.225131;21.016985
3 pokoje, oddzielna kuchnia po remoncie! Mokotów;FLAT;Warszawa;Mokotów;699000;12482;56;THREE;No data;floor_8;No data;secondary;No data;balcony, basement, lift, separate_kitchen;380;furniture, stove;ready_to_use;block;No data;No data;entryphone;52.19832;21.01715
Apartament na Zawadach z ogrodem i parkingami;FLAT;Warszawa;Wilanów;2500000;14970;167;FIVE;2010;floor_1;gas;secondary;full_ownership;air_conditioning, balcony, basement, garage, garden, lift, terrace, usable_room;950;dishwasher, fridge, furniture, oven, stove, tv, washing_machine;ready_to_use;apartment;brick;cable-television, internet, phone;alarm, anti_burglary_door, closed_area, entryphone, monitoring, roller_shutters;52.1688399;21.1158806
Cegła 1957r | 2 Pok + Kuchnia | Loggia | 2 Stronne;FLAT;Warszawa;Praga-Południe;515000;11075;46.5;TWO;1957;floor_2;urban;secondary;full_ownership;balcony, basement;540;No data;ready_to_use;tenement;brick;No data;anti_burglary_door, entryphone, monitoring;52.2498;21.0804
2 pokoje + oddzielna kuchnia, Szmulki;FLAT;Warszawa;Praga-Północ;389000;10514;37;TWO;1976;floor_9;No data;secondary;No data;basement;450;furniture;No data;No data;No data;No data;No data;52.26071;21.05639
3 Pokoje |Garaż i Komórka W Cenie | Metro;FLAT;Warszawa;Mokotów;1150000;15532;74.04;THREE;2012;floor_4;urban;secondary;full_ownership;garage, lift;750;dishwasher, fridge, furniture, oven, stove, washing_machine;ready_to_use;apartment;No data;No data;anti_burglary_door, closed_area, entryphone, monitoring;52.17155;21.01638
Kawalerka na Woli;FLAT;Warszawa;Wola;450000;15000;30;ONE;1955;floor_3;No data;secondary;full_ownership;No data;350;No data;to_renovation;block;brick;No data;No data;52.245891600733;20.9440191426
3 pokojowe mieszkanie TBS 67,5 m2 (Metro Bemowo);FLAT;Warszawa;Bemowo;295000;4370;67.5;THREE;2007;floor_3;No data;secondary;share;balcony, basement, lift, separate_kitchen;1776;dishwasher, oven, stove;No data;block;No data;cable-television, internet;anti_burglary_door, entryphone;52.2419112;20.9053732
2-pokojowe mieszkanie 43m2 + taras Bez Pośredników;FLAT;Warszawa;Włochy;580905;13500;43.03;TWO;2022;floor_1;No data;primary;full_ownership;garage, terrace, balcony, lift;No data;No data;to_completion;No data;No data;No data;closed_area;52.203145689491;20.928492537827
5-pokojowe mieszkanie 112m2 + balkon Bez Prowizji;FLAT;Warszawa;Wola;2384000;21114;112.91;FIVE;2023;floor_7;No data;primary;full_ownership;garage, balcony, lift;No data;No data;to_completion;No data;No data;No data;No data;52.223824273231;20.971056233731
3 pokoje, 62 m2, Warszawa Włochy, ul. Szczęsna;FLAT;Warszawa;Włochy;775000;12482;62.09;THREE;2012;floor_2;boiler_room;secondary;full_ownership;balcony, garage, lift;970;dishwasher, fridge, furniture, oven, stove, washing_machine;ready_to_use;block;silikat;cable-television, internet;closed_area, entryphone, monitoring;52.2095801;20.9299477
3-pokojowe mieszkanie 62m2 + balkon Bezpośrednio;FLAT;Warszawa;Praga-Południe;756216;12150;62.24;THREE;2023;floor_2;No data;primary;full_ownership;garage, balcony, lift;No data;No data;to_completion;No data;No data;No data;No data;52.25383;21.06828
2-pokojowe mieszkanie 34m2 + ogródek Bez Prowizji;FLAT;Warszawa;Praga-Południe;500044;14477;34.54;TWO;2023;ground_floor;No data;primary;full_ownership;garage, garden, lift;No data;No data;to_completion;No data;No data;No data;No data;52.25383;21.06828
Mieszkanie 35 m2 Dolny Mokotów, Stegny ul Aignera;FLAT;Warszawa;Mokotów;665000;19000;35;ONE;2020;No data;No data;secondary;full_ownership;balcony;280;dishwasher, fridge, furniture, oven, stove, washing_machine;ready_to_use;block;No data;cable-television, internet;entryphone, monitoring;52.19944;21.03361
4-pokojowe mieszkanie 70m2 + 2 balkony;FLAT;Warszawa;Rembertów;593697;8450;70.26;FOUR;2023;floor_1;No data;primary;full_ownership;garage, balcony, lift;No data;No data;to_completion;No data;No data;No data;closed_area;52.2745847;21.1174715
2 pok. z ogródkiem 45m2, cesja, płatność 30/70;FLAT;Warszawa;Włochy;569000;12453;45.69;TWO;2023;ground_floor;urban;primary;full_ownership;garage, garden, lift, terrace;No data;No data;to_completion;block;No data;No data;anti_burglary_door, entryphone, monitoring;52.19263148535723;20.932906917877197
Sadyba na inwestycję;FLAT;Warszawa;Mokotów;590000;10612;55.6;FOUR;1971;floor_4;urban;secondary;co_operative_ownership;balcony;No data;No data;to_renovation;block;No data;cable-television, internet;entryphone;52.18748;21.0611
Trzy pokoje na Bemowie z miejscem postojowym.;FLAT;Warszawa;Śródmieście;645000;10403;62;THREE;1984;floor_6;urban;secondary;full_ownership;air_conditioning, balcony, basement, garage, lift, separate_kitchen;889;dishwasher, fridge, furniture, oven, washing_machine;ready_to_use;block;concrete_plate;cable-television, internet, phone;anti_burglary_door, entryphone;52.2308;20.9102
1-pokojowe mieszkanie 26m2 + balkon Bezpośrednio;FLAT;Warszawa;Wola;497000;19115;26;ONE;2023;floor_1;No data;primary;full_ownership;garage, balcony, lift;No data;No data;to_completion;No data;No data;No data;No data;52.223824273231;20.971056233731
Dwa pokoje na Bielanach.;FLAT;Warszawa;Bielany;470000;10805;43.5;TWO;1972;floor_4;urban;secondary;full_ownership;balcony, basement, lift, separate_kitchen;470;fridge, furniture, oven, stove, washing_machine;ready_to_use;block;concrete_plate;cable-television, internet, phone;anti_burglary_door, entryphone, monitoring;52.2738;20.9384
3-pokojowe na Bielanach gotowe do wprowadzenia.;FLAT;Warszawa;Bielany;579000;10432;55.5;THREE;1972;floor_1;urban;secondary;co_operative_ownership;balcony, basement, lift, separate_kitchen;500;fridge, furniture, oven, stove, washing_machine;ready_to_use;block;concrete_plate;cable-television, internet, phone;anti_burglary_door, entryphone, monitoring;52.2704;20.9455
1-pokojowe mieszkanie 31m2 + balkon;FLAT;Warszawa;Bielany;479000;15407;31.09;ONE;2024;floor_4;No data;primary;full_ownership;garage, balcony, lift;No data;No data;to_completion;No data;No data;No data;closed_area;52.302160658005;20.927214581104
Gotowe do wprowadzenia 2 pokojowe z 2 ogródkami;FLAT;Warszawa;Wilanów;755000;14519;52;TWO;2017;ground_floor;urban;secondary;full_ownership;garage, garden, lift, terrace;550;dishwasher, fridge, oven, stove, washing_machine;ready_to_use;apartment;brick;cable-television, internet;anti_burglary_door, closed_area, entryphone;52.1611563;21.071595
Sprzedam 3 pokoje, blisko metra M2, Bemowo;FLAT;Warszawa;Bemowo;739000;12374;59.72;THREE;2008;floor_1;No data;secondary;full_ownership;balcony, garage, lift;No data;dishwasher, fridge, oven, stove, washing_machine;ready_to_use;block;brick;cable-television, internet;anti_burglary_door, closed_area, entryphone, monitoring;52.24631024377325;20.906780279870624
Park Pelargonii | 3-pok. mieszkanie M4;FLAT;Warszawa;Wawer;790000;9382;84.2;THREE;No data;floor_1;No data;primary;full_ownership;garage, balcony;No data;No data;to_completion;ribbon;No data;internet, phone;entryphone;52.166275;21.177645
3 pokoje 69,87m2 - Księcia Witolda, Rembertów;FLAT;Warszawa;Rembertów;681000;9747;69.87;THREE;2022;floor_1;boiler_room;primary;No data;balcony, garage;No data;No data;to_completion;apartment;brick;cable-television, internet, phone;closed_area, entryphone, monitoring;52.249462;21.167871
2 pokoje na parterze z ogródkiem/ od dewelopera;FLAT;Warszawa;Białołęka;460000;9800;46.94;TWO;2022;ground_floor;gas;primary;full_ownership;balcony, garage, garden, lift;No data;No data;to_completion;block;brick;cable-television, internet;closed_area, entryphone;52.32899;21.00768
2 pokojowe mieszkanie przy parku;FLAT;Warszawa;Włochy;724890;14600;49.65;TWO;2024;floor_4;No data;primary;No data;balcony, garage, two_storey, usable_room;No data;No data;to_completion;block;No data;cable-television, internet;entryphone, monitoring;52.198605;20.927866
Mieszkanie w Inwestycji Apartamenty Ruczaj Z_3;FLAT;Warszawa;Wilanów;592384;8900;66.56;TWO;2019;floor_2;boiler_room;primary;full_ownership;balcony, basement, garage, terrace;No data;No data;to_completion;block;breezeblock;cable-television, internet;anti_burglary_door, closed_area, entryphone, monitoring;52.1462738;21.1186841
Mieszkanie 61,35m2, 3 pokoje + 20m2 balkonu;FLAT;Warszawa;Włochy;722700;11780;61.35;THREE;2023;floor_1;boiler_room;primary;full_ownership;air_conditioning, balcony, garage, lift;12;No data;to_completion;apartment;silikat;cable-television, internet, phone;anti_burglary_door, closed_area, entryphone, monitoring;52.19921;20.915718
4-pokojowe mieszkanie 90m2 + balkon;FLAT;Warszawa;Wola;1362478;15075;90.38;FOUR;2023;floor_4;No data;primary;full_ownership;garage, balcony, lift;No data;No data;to_completion;No data;No data;No data;closed_area;52.23199;20.93373
Apartament Gotowy Do Aranżacji / Bez Prowizji;FLAT;Warszawa;Wola;6378017;25750;247.69;SIX;2023;floor_higher_10;urban;secondary;full_ownership;air_conditioning, balcony, garage, lift, terrace, two_storey, usable_room;No data;No data;to_completion;apartment;No data;cable-television, internet, phone;anti_burglary_door, closed_area, entryphone, monitoring;52.23159;20.96371
Mieszkanie M3, Osiedle Słoneczne, ul. Kolejowa;FLAT;ul. Kolejowa;Brodnica;543960;9000;60.44;THREE;mieszkanie-m3-osiedle-sloneczne-ul-kolejowa-ID4jiqD;2016;floor_3;gas;secondary;full_ownership;air_conditioning, balcony, basement, garage, lift;500;dishwasher, fridge, furniture, oven, stove;ready_to_use;block;cellular_concrete;cable-television, internet;closed_area, entryphone, monitoring;53.274432144883136;19.408103260327135
Na sprzedaż Apartament w Brodnicy 117 m2!;FLAT;Brodnica;kujawsko-pomorskie;589000;5034;117;FOUR;na-sprzedaz-apartament-w-brodnicy-117-m2-ID4ijDZ;1996;floor_1;urban;secondary;full_ownership;balcony, basement, garage;No data;fridge, furniture;No data;apartment;No data;No data;entryphone;53.2696;19.4
Przestronne mieszkanie na parterze 67 m2;FLAT;Sobieskiego;Brodnica;440000;6567;67;THREE;przestronne-mieszkanie-na-parterze-67-m2-ID4iVix;2016;ground_floor;urban;secondary;full_ownership;balcony, basement, separate_kitchen;No data;No data;No data;block;No data;No data;closed_area, entryphone;53.2459;19.4154
Sprzedam Mieszkanie Parter 45m2 Wyspiańskiego;FLAT;S. Wyspiańskiego;Brodnica;244999;5506;44.5;THREE;sprzedam-mieszkanie-parter-45m2-wyspianskiego-ID4iLTu;No data;ground_floor;urban;secondary;full_ownership;balcony, basement, separate_kitchen;No data;No data;No data;block;No data;No data;entryphone;53.2474;19.4106
Sprzedam Mieszkanie Brodnica;FLAT;Brodnica;kujawsko-pomorskie;230000;3680;62.5;FOUR;sprzedam-mieszkanie-brodnica-ID4ikxZ;No data;floor_3;urban;secondary;full_ownership;basement;No data;No data;No data;block;breezeblock;No data;No data;53.2704;19.3991
Atrakcyjne mieszkanie na Dużym Rynku.;FLAT;Brodnica;kujawsko-pomorskie;330000;6392;51.63;TWO;atrakcyjne-mieszkanie-na-duzym-rynku-ID4jfQu;No data;floor_3;urban;secondary;full_ownership;basement, separate_kitchen;No data;fridge;No data;tenement;brick;No data;entryphone;53.2554;19.403
Mieszkania Okazja 3999 m2. Inwestycja;FLAT;Brodnica;kujawsko-pomorskie;229550;3999;57.4;THREE;mieszkania-okazja-3999-m2-inwestycja-ID4hzLX;2010;floor_1;other;secondary;full_ownership;basement, garage, garden, separate_kitchen, usable_room;No data;furniture, oven, stove;ready_to_use;apartment;breezeblock;cable-television, internet, phone;alarm, closed_area, entryphone, monitoring;53.246204172379855;19.411089746093744
2-pokojowe mieszkanie 42,5 m2 + balkon;FLAT;Brodnica;kujawsko-pomorskie;215000;5059;42.5;TWO;2-pokojowe-mieszkanie-42-5-m2-balkon-ID4hrDb;No data;floor_2;urban;secondary;co_operative_ownership_with_a_land_and_mortgage_registe;balcony, basement, separate_kitchen;No data;No data;ready_to_use;block;brick;No data;entryphone;53.25021;19.40285
Mieszkanie nr 64;FLAT;ul. Limbowa;Brodnica;313943.5;6918;45.38;TWO;mieszkanie-nr-64-ID4fe34;2022;floor_3;gas;primary;full_ownership;air_conditioning, balcony, basement, lift;No data;No data;to_completion;block;No data;cable-television, internet;closed_area, entryphone, monitoring;53.27524;19.418232
Łazienna. Ładne mieszkanie do sprzedania;FLAT;Brodnica;kujawsko-pomorskie;155000;3163;49;TWO;lazienna-ladne-mieszkanie-do-sprzedania-ID4jn1K;1938;floor_2;boiler_room;secondary;full_ownership;basement, separate_kitchen, usable_room;No data;fridge, oven, stove, washing_machine;ready_to_use;block;brick;No data;closed_area;53.25531945372924;19.39765724334716
Sprzedam atrakcyjne mieszkanie ul. Sudecka;FLAT;Brodnica;kujawsko-pomorskie;435000;7632;57;THREE;sprzedam-atrakcyjne-mieszkanie-ul-sudecka-ID4jmwW;No data;floor_1;boiler_room;secondary;No data;balcony, basement, garage;No data;dishwasher, fridge, furniture, oven, stove;ready_to_use;block;No data;cable-television, internet;anti_burglary_door, closed_area, entryphone, monitoring;53.25021;19.40285
Mieszkanie nr 44;FLAT;ul. Limbowa;Brodnica;357943;6130;58.39;FOUR;mieszkanie-nr-44-ID4fe05;2022;floor_1;gas;primary;full_ownership;air_conditioning, balcony, basement, lift;No data;No data;to_completion;block;No data;cable-television, internet;closed_area, entryphone, monitoring;53.27524;19.418232
Mieszkanie nr 52;FLAT;ul. Limbowa;Brodnica;348807.5;6223;56.05;THREE;mieszkanie-nr-52-ID4fe2E;2022;floor_2;gas;primary;full_ownership;air_conditioning, balcony, basement, lift;No data;No data;to_completion;block;No data;cable-television, internet;closed_area, entryphone, monitoring;53.27524;19.418232
NOWE mieszkanie 39,5m2;FLAT;ul. Okrężna;Brodnica;255000;6456;39.5;TWO;nowe-mieszkanie-39-5m2-ID4jl9Q;2022;floor_2;gas;secondary;full_ownership;balcony, basement, garage;380;No data;ready_to_use;block;breezeblock;cable-television, internet;closed_area, entryphone;53.273216697769385;19.414199964120467
3 pokojowe - gotowe do zamieszkania - bezpośrednio;FLAT;ul. Nowa Kolonia;Brodnica;280000;5983;46.8;THREE;3-pokojowe-gotowe-do-zamieszkania-bezposrednio-ID4j9f6;No data;floor_2;urban;secondary;full_ownership;balcony, basement, separate_kitchen;No data;dishwasher, fridge, furniture, oven, stove, washing_machine;ready_to_use;block;concrete_plate;No data;entryphone;53.249555;19.407187
Mieszkanie nr 43;FLAT;ul. Limbowa;Brodnica;365396.07;6095;59.95;THREE;mieszkanie-nr-43-ID4fdYY;2022;ground_floor;gas;primary;full_ownership;air_conditioning, balcony, basement, lift;No data;No data;to_completion;block;No data;cable-television, internet;closed_area, entryphone, monitoring;53.27524;19.418232
Sprzedam Mieszkanie, 54m2;FLAT;Brodnica;kujawsko-pomorskie;299000;5537;54;TWO;sprzedam-mieszkanie-54m2-ID4gOy2;2000;floor_2;urban;secondary;co_operative_ownership;balcony, basement, separate_kitchen, usable_room;530;dishwasher, fridge, furniture, oven, stove, tv, washing_machine;ready_to_use;block;No data;cable-television, internet;No data;53.268847571886845;19.396584359741205
Mieszkanie nr 42;FLAT;ul. Limbowa;Brodnica;356821.47;6083;58.66;THREE;mieszkanie-nr-42-ID4fdXJ;2022;ground_floor;gas;primary;full_ownership;air_conditioning, balcony, basement, lift;No data;No data;to_completion;block;No data;cable-television, internet;closed_area, entryphone, monitoring;53.27524;19.418232
sprzedaż mieszkanie Brodnica Kazimierza Wlk.;FLAT;ul. Kazimierza Wielkiego;Brodnica;270000;4463;60.5;THREE;sprzedaz-mieszkanie-brodnica-kazimierza-wlk-ID4iATL;1989;floor_3;urban;secondary;co_operative_ownership;balcony, basement, separate_kitchen, usable_room;640;dishwasher, furniture, oven, stove;ready_to_use;block;concrete_plate;cable-television, internet, phone;entryphone;53.242315225178885;19.407080346557606
Zadbane Mieszkanie 38m3;FLAT;ul. Stanisława Wyspiańskiego;Brodnica;229000;6026;38;TWO;zadbane-mieszkanie-38m3-ID4jjjp;No data;floor_3;urban;secondary;co_operative_ownership_with_a_land_and_mortgage_registe;balcony, basement, garage;500;furniture, oven, stove;ready_to_use;block;No data;cable-television, internet, phone;entryphone;53.246513624132;19.409440776075
Mieszkanie na rynku w atrakcyjnej cenie;FLAT;ul. Duży Rynek;Brodnica;330000;5685;58.05;TWO;mieszkanie-na-rynku-w-atrakcyjnej-cenie-ID4j7p7;No data;floor_2;urban;secondary;co_operative_ownership;basement, garage, separate_kitchen;560;dishwasher, fridge, furniture, oven, stove, tv, washing_machine;ready_to_use;tenement;brick;cable-television, internet;entryphone;53.2550991;19.4032737
Mieszkanie przy Sudeckiej;FLAT;Brodnica;kujawsko-pomorskie;319000;6716;47.5;TWO;mieszkanie-przy-sudeckiej-ID4jiBv;2017;floor_3;other;secondary;full_ownership;balcony;300;No data;ready_to_use;No data;cellular_concrete;internet;No data;53.2577417;19.3822783
Mieszkanie Segment Dom z ogrodem Karbowo Brodnica;FLAT;os. Karbowo;Brodnica;359503;4437;81.03;FIVE;mieszkanie-segment-dom-z-ogrodem-karbowo-brodnica-ID4iusV;2023;ground_floor;other;primary;full_ownership;air_conditioning, garage, garden, separate_kitchen, terrace, usable_room;No data;No data;to_completion;ribbon;silikat;cable-television, internet, phone;alarm, anti_burglary_door, closed_area, entryphone, monitoring, roller_shutters;53.2599703;19.3956618
Mieszkanie na SPRZEDAŻ apartament NOWE DEWELOPER !;FLAT;ul. Zakątek;Brodnica;242971;4800;50.62;THREE;mieszkanie-na-sprzedaz-apartament-nowe-deweloper-ID4e0xV;2023;floor_1;gas;primary;full_ownership;air_conditioning, balcony, garage, two_storey;500;No data;to_completion;apartment;silikat;cable-television, internet, phone;anti_burglary_door, closed_area, entryphone, monitoring, roller_shutters;53.2713931;19.4155206
Mieszkanie Apartament Brodnica NOWE DEWELOPER !!!;FLAT;Jana Pawła II;Brodnica;304321;5900;51.58;THREE;mieszkanie-apartament-brodnica-nowe-deweloper-ID4h1lR;2023;floor_1;boiler_room;primary;full_ownership;air_conditioning, balcony, garage, terrace, two_storey;500;No data;to_completion;apartment;silikat;cable-television, internet;closed_area, entryphone, monitoring;53.2724;19.4058
Apartament Mieszkanie z TARASEM NOWA INWESTYCJA !;FLAT;Brodnica;kujawsko-pomorskie;305670;5926;51.58;THREE;apartament-mieszkanie-z-tarasem-nowa-inwestycja-ID471oM;2024;floor_1;gas;primary;full_ownership;air_conditioning, balcony, garage, garden, terrace, two_storey, usable_room;500;No data;to_completion;apartment;silikat;cable-television, internet, phone;anti_burglary_door, closed_area, entryphone, monitoring, roller_shutters;53.2599703;19.3956618
Mieszkanie 67m2, Brodnica;FLAT;ul. Klemensa Malickiego;Brodnica;459000;6851;67;THREE;mieszkanie-67m2-brodnica-ID4j5Nh;1992;floor_2;urban;secondary;full_ownership;balcony, basement, garage, separate_kitchen;700;fridge, furniture, oven, stove, tv, washing_machine;ready_to_use;block;breezeblock;cable-television, internet, phone;entryphone;53.2706378;19.3994631
Mieszkanie nr 41;FLAT;ul. Limbowa;Brodnica;339551.68;5841;58.13;FOUR;mieszkanie-nr-41-ID4fdXz;2022;ground_floor;gas;primary;full_ownership;air_conditioning, balcony, basement, lift;No data;No data;to_completion;block;No data;cable-television, internet;closed_area, entryphone, monitoring;53.27524;19.418232
Mieszkanie nr 40;FLAT;ul. Limbowa;Brodnica;335688.72;5989;56.05;THREE;mieszkanie-nr-40-ID4fdX8;2022;ground_floor;gas;primary;full_ownership;air_conditioning, balcony, basement, lift;No data;No data;to_completion;block;No data;cable-television, internet;closed_area, entryphone, monitoring;53.27524;19.418232
Mieszkanie nr 5, Budynek 2.5 | Longinówka;FLAT;ul. Wczasowa;Brodnica;475430;6871;69.19;FOUR;mieszkanie-nr-5-budynek-2-5-longinowka-ID460zb;2020;ground_floor;No data;primary;No data;air_conditioning, basement, lift, terrace;No data;No data;to_completion;apartment;silikat;cable-television, internet;closed_area, entryphone, monitoring;53.286434;19.386068
Mieszkanie nr 2, Budynek 2.5. | Longinówka;FLAT;ul. Wczasowa;Brodnica;472755;7114;66.45;THREE;mieszkanie-nr-2-budynek-2-5-longinowka-ID460u3;2020;ground_floor;No data;primary;No data;air_conditioning, basement, lift, terrace;No data;No data;No data;apartment;silikat;No data;closed_area, entryphone, monitoring;53.286434;19.386068
Mieszkanie Dom Segment z ogrodem Karbowo Brodnica;FLAT;Brodnica;kujawsko-pomorskie;359994;4443;81.03;FIVE;mieszkanie-dom-segment-z-ogrodem-karbowo-brodnica-ID4iDGN;2023;ground_floor;other;primary;full_ownership;air_conditioning, garage, garden, terrace, two_storey;No data;No data;ready_to_use;ribbon;silikat;cable-television, internet, phone;alarm, anti_burglary_door, closed_area, entryphone, monitoring, roller_shutters;53.25021;19.40285
Mieszkanie nr 7, Budynek 2.5 | Longinówka;FLAT;ul. Wczasowa;Brodnica;453680;6826;66.46;THREE;mieszkanie-nr-7-budynek-2-5-longinowka-ID460B5;2020;floor_1;No data;primary;No data;air_conditioning, balcony, basement, lift;No data;No data;to_completion;apartment;silikat;internet;closed_area, entryphone, monitoring;53.286434;19.386068
Mieszkanie nr 39;FLAT;ul. Limbowa;Brodnica;329624;5645;58.39;FOUR;mieszkanie-nr-39-ID4fdVk;2022;ground_floor;gas;primary;full_ownership;air_conditioning, balcony, basement, lift;No data;No data;to_completion;block;No data;cable-television, internet;closed_area, entryphone, monitoring;53.27524;19.418232
Mieszkanie nr 1, Budynek 1.5 | Longinówka;FLAT;ul. Wczasowa;Brodnica;385459.5;7350;52.44;TWO;mieszkanie-nr-1-budynek-1-5-longinowka-ID460pA;2020;ground_floor;No data;primary;No data;air_conditioning, balcony, basement;No data;No data;to_completion;apartment;silikat;cable-television, internet;closed_area, entryphone, monitoring;53.286434;19.386068
Mieszkanie 42,7m2 Okrężna;FLAT;Brodnica;kujawsko-pomorskie;250000;5855;42.7;TWO;mieszkanie-42-7m2-okrezna-ID4j9Re;2022;floor_2;urban;primary;full_ownership;balcony, basement, garage;400;No data;to_completion;block;breezeblock;cable-television, internet, phone;alarm, anti_burglary_door, closed_area, entryphone, monitoring;53.25021;19.40285
Mieszkanie w centrum Brodnicy;FLAT;ul. Ogrodowa;Brodnica;319000;6646;48;TWO;mieszkanie-w-centrum-brodnicy-ID4j4En;1998;floor_1;urban;secondary;full_ownership;balcony, basement, garage, separate_kitchen;No data;No data;No data;block;No data;cable-television, internet, phone;closed_area, entryphone;53.2533891498234;19.404940336184698
Mieszkanie, 38 m², Brodnica;FLAT;Brodnica;kujawsko-pomorskie;190000;5000;38;TWO;mieszkanie-38-m-brodnica-ID4j4b0;No data;floor_3;No data;secondary;co_operative_ownership;balcony;No data;No data;No data;No data;No data;No data;No data;53.2519201;19.4003911
Witosa. Duże ładne mieszkanie. 4 pokoje;FLAT;ul. Wincentego Witosa;Brodnica;230000;3069;74.95;FOUR;witosa-duze-ladne-mieszkanie-4-pokoje-ID4hnSt;1982;floor_4;urban;secondary;co_operative_ownership;balcony, basement;849;No data;ready_to_use;block;concrete_plate;cable-television, internet;entryphone;53.24669761937149;19.41377393757323
Mieszkanie, 29,78 m², Brodnica;FLAT;Brodnica;kujawsko-pomorskie;135000;4533;29.78;ONE;mieszkanie-29-78-m-brodnica-ID4j2vj;No data;ground_floor;electrical;secondary;full_ownership;garage;No data;No data;ready_to_use;No data;brick;No data;No data;53.2650963;19.4205617
Mieszkanie, 60,50 m², Brodnica;FLAT;Brodnica;brodnicki;269000;4446;60.5;THREE;mieszkanie-60-50-m-brodnica-ID4j1uV;No data;floor_3;No data;secondary;full_ownership;balcony;No data;No data;No data;No data;concrete_plate;phone;No data;53.246513624132;19.409440776075
Mieszkanie nr 72;FLAT;ul. Limbowa;Brodnica;380478.5;6569;57.92;FOUR;mieszkanie-nr-72-ID4fe74;2022;floor_5;gas;primary;full_ownership;air_conditioning, balcony, basement, lift;No data;No data;to_completion;block;No data;cable-television, internet;closed_area, entryphone, monitoring;53.27524;19.418232
Mieszkanie nr 70;FLAT;ul. Limbowa;Brodnica;385024.5;6594;58.39;FOUR;mieszkanie-nr-70-ID4fe5C;2022;floor_5;gas;primary;full_ownership;air_conditioning, balcony, basement, lift;No data;No data;to_completion;block;No data;cable-television, internet;closed_area, entryphone, monitoring;53.27524;19.418232
Mieszkanie nr 67;FLAT;ul. Limbowa;Brodnica;366610;6330;57.92;FOUR;mieszkanie-nr-67-ID4fe4p;2022;floor_4;gas;primary;full_ownership;air_conditioning, balcony, basement, lift;No data;No data;to_completion;block;No data;cable-television, internet;closed_area, entryphone, monitoring;53.27524;19.418232
Mieszkanie w Brodnicy w super cenie;FLAT;Sudecka;Brodnica;449000;6689;67.13;THREE;mieszkanie-w-brodnicy-w-super-cenie-ID4iYkV;2004;ground_floor;urban;secondary;full_ownership;balcony, separate_kitchen, usable_room;No data;No data;ready_to_use;block;silikat;No data;closed_area;53.2577;19.3835
Mieszkanie, 56,90 m², Brodnica;FLAT;Brodnica;kujawsko-pomorskie;385000;6766;56.9;THREE;mieszkanie-56-90-m-brodnica-ID4iWlE;No data;floor_3;other;secondary;co_operative_ownership;No data;No data;No data;ready_to_use;No data;cellular_concrete;internet, phone;No data;53.25021;19.40285
Mieszkanie, 73,50 m², Brodnica;FLAT;Brodnica;kujawsko-pomorskie;369999;5034;73.5;FOUR;mieszkanie-73-50-m-brodnica-ID4iNYD;2022;ground_floor;gas;primary;full_ownership;No data;No data;No data;No data;No data;brick;phone;No data;53.2331181;19.384518
Mieszkanie Świętokrzyska 40,14m2 + GARAŻ;FLAT;ul. Świętokrzyska;Brodnica;300000;7474;40.14;TWO;mieszkanie-swietokrzyska-40-14m2-garaz-ID4iJCm;2008;floor_1;urban;secondary;full_ownership;balcony, basement, garage;400;furniture;ready_to_use;block;breezeblock;cable-television, internet, phone;anti_burglary_door, closed_area, entryphone, monitoring;53.25700010434839;19.382996199613956
Mieszkanie 65,4m2 Karbowo Młodzieżowa;FLAT;Brodnica;brodnicki;169000;2584;65.4;THREE;mieszkanie-65-4m2-karbowo-mlodziezowa-ID4iJAp;No data;floor_1;urban;secondary;full_ownership;balcony, basement, separate_kitchen;570;furniture;ready_to_use;block;concrete_plate;cable-television, internet, phone;No data;53.25021;19.40285
Mieszkanie, 54,09 m², Brodnica;FLAT;Brodnica;kujawsko-pomorskie;275000;5084;54.09;THREE;mieszkanie-54-09-m-brodnica-ID4iIOZ;1994;floor_4;No data;secondary;full_ownership;No data;No data;No data;ready_to_use;No data;cellular_concrete;phone;No data;53.25021;19.40285
Apartament MIESZKANIE kawalerka z OGRODEM;FLAT;ul. Zakątek;Brodnica;145232;5800;25.04;ONE;apartament-mieszkanie-kawalerka-z-ogrodem-ID4e0xz;2024;ground_floor;gas;primary;full_ownership;air_conditioning, garage, garden;300;No data;to_completion;block;silikat;cable-television, internet, phone;anti_burglary_door, closed_area, entryphone, monitoring, roller_shutters;53.2713931;19.4155206
Kawalerka na sprzedaż w Brodnicy;FLAT;Matejki;Brodnica;230000;7931;29;ONE;kawalerka-na-sprzedaz-w-brodnicy-ID4iEDr;1989;floor_3;urban;secondary;full_ownership;separate_kitchen;No data;No data;ready_to_use;block;concrete_plate;No data;No data;53.2504;19.4073
Mieszkanie, 64,53 m², Brodnica;FLAT;Brodnica;kujawsko-pomorskie;349000;5408;64.53;THREE;mieszkanie-64-53-m-brodnica-ID4iDGI;No data;floor_3;No data;secondary;full_ownership;balcony;No data;No data;ready_to_use;No data;concrete_plate;internet, phone;No data;53.2443479;19.4128298
Mieszkanie, 70,10 m², Brodnica;FLAT;Brodnica;kujawsko-pomorskie;439000;6262;70.1;THREE;mieszkanie-70-10-m-brodnica-ID4itNy;1975;ground_floor;No data;secondary;full_ownership;garage;No data;No data;ready_to_use;No data;brick;internet, phone;No data;53.2594888;19.3992581
Trzypokojowe mieszkanie z balkonem 68,28 m2;FLAT;Brodnica;brodnicki;395000;5785;68.28;THREE;trzypokojowe-mieszkanie-z-balkonem-68-28-m2-ID4isN4;1990;ground_floor;urban;secondary;co_operative_ownership_with_a_land_and_mortgage_registe;balcony, separate_kitchen;No data;No data;ready_to_use;block;breezeblock;internet;No data;53.2703;19.399
Mieszkanie Brodnica 45 m2 Ogrodzone Centrum;FLAT;Piaski;Brodnica;219997;4889;45;THREE;mieszkanie-brodnica-45-m2-ogrodzone-centrum-ID4ipnS;No data;floor_4;No data;secondary;full_ownership;basement;No data;furniture;No data;block;No data;No data;No data;53.2489;19.3982
Mieszkanie na parterze sprzedam. Brodnica;FLAT;Brodnica;kujawsko-pomorskie;145000;4337;33.43;ONE;mieszkanie-na-parterze-sprzedam-brodnica-ID4ikxX;No data;ground_floor;electrical;secondary;full_ownership;air_conditioning, basement;No data;furniture, washing_machine;No data;tenement;brick;No data;entryphone;53.2482;19.4002
Ceglana. Mieszkanie do sprzedania;FLAT;ul. Ceglana;Brodnica;190000;4872;39;TWO;ceglana-mieszkanie-do-sprzedania-ID4gQVm;1978;floor_2;urban;secondary;full_ownership;balcony, basement;450;fridge, furniture, oven;ready_to_use;block;concrete_plate;cable-television, internet, phone;entryphone;53.24887369355511;19.410702538653553
Lidzbarska. Mieszkanie do sprzedania;FLAT;ul. Lidzbarska;Brodnica;115000;3485;33;ONE;lidzbarska-mieszkanie-do-sprzedania-ID4i4zu;1930;ground_floor;boiler_room;secondary;full_ownership;No data;350;No data;ready_to_use;block;brick;No data;No data;53.25265411715744;19.41763865717993
Mieszkanie, 55,80 m², Brodnica;FLAT;Sudecka;Brodnica;399000;7151;55.8;THREE;mieszkanie-55-80-m-brodnica-ID4hME2;2015;floor_3;other;secondary;full_ownership;balcony;500;No data;ready_to_use;No data;cellular_concrete;internet, phone;No data;53.2575;19.381111111111
Mieszkanie, 48,20 m², Brodnica;FLAT;Brodnica;brodnicki;177000;3672;48.2;TWO;mieszkanie-48-20-m-brodnica-ID4hJX2;No data;floor_4;other;secondary;co_operative_ownership;balcony;No data;No data;to_renovation;No data;concrete_plate;internet;No data;53.2426317;19.405727
Mieszkanie, 48,40 m², Brodnica;FLAT;Brodnica;kujawsko-pomorskie;262000;5413;48.4;TWO;mieszkanie-48-40-m-brodnica-ID4hyZ2;No data;floor_2;other;secondary;full_ownership;No data;500;No data;No data;No data;cellular_concrete;internet;No data;53.2426317;19.405727
Mieszkanie, 21 m², Brodnica;FLAT;Gen.Andersa;Brodnica;155000;7381;21;ONE;mieszkanie-21-m-brodnica-ID4hvHl;No data;ground_floor;other;secondary;full_ownership;No data;330;No data;ready_to_use;No data;cellular_concrete;No data;No data;53.268333333333;19.408611111111
Malickiego. Brodnica. Mieszkanie do sprzedania;FLAT;ul. Klemensa Malickiego;Brodnica;163000;4640;35.13;TWO;malickiego-brodnica-mieszkanie-do-sprzedania-ID4g21Q;No data;floor_3;urban;secondary;co_operative_ownership_with_a_land_and_mortgage_registe;basement;300;fridge, furniture, oven, washing_machine;ready_to_use;block;breezeblock;No data;entryphone;53.2706378;19.3994631
Mieszkanie, 60 m², Brodnica;FLAT;Brodnica;kujawsko-pomorskie;298000;4967;60;THREE;mieszkanie-60-m-brodnica-ID4hbi5;No data;ground_floor;other;secondary;full_ownership;No data;No data;No data;ready_to_use;No data;concrete_plate;internet, phone;No data;53.2419942;19.4075095
Ostoja Nieruchomości - Lidzbarska 47,96m2;FLAT;ul. Maksymiliana Klinickiego;Brodnica;254188;5300;47.96;ONE;ostoja-nieruchomosci-lidzbarska-47-96m2-ID4h3gH;2023;floor_1;gas;primary;full_ownership;balcony, garage, usable_room;400;No data;to_completion;block;breezeblock;cable-television, internet, phone;alarm, anti_burglary_door, closed_area, entryphone, monitoring;53.2526439;19.4281763
Ostoja Nieruchomości - Lidzbarska 38,93m2;FLAT;ul. Maksymiliana Klinickiego;Brodnica;210222;5400;38.93;ONE;ostoja-nieruchomosci-lidzbarska-38-93m2-ID4h3gs;2023;floor_1;gas;primary;full_ownership;balcony, garage, usable_room;350;No data;to_completion;block;breezeblock;cable-television, internet, phone;alarm, anti_burglary_door, closed_area, entryphone, monitoring;53.2526439;19.4281763
Ostoja Nieruchomości - Lidzbarska 42,22m2;FLAT;ul. Maksymiliana Klinickiego;Brodnica;232210;5500;42.22;TWO;ostoja-nieruchomosci-lidzbarska-42-22m2-ID4h2vq;2023;ground_floor;gas;primary;full_ownership;garage, usable_room;420;No data;to_completion;block;breezeblock;cable-television, internet, phone;alarm, anti_burglary_door, closed_area, entryphone, monitoring;53.25356821591413;19.431008712719745
Ostoja Nieruchomości - Lidzbarska 61,34m2;FLAT;ul. Maksymiliana Klinickiego;Brodnica;337370;5500;61.34;TWO;ostoja-nieruchomosci-lidzbarska-61-34m2-ID4h2wh;2023;ground_floor;gas;primary;full_ownership;garage, usable_room;450;No data;to_completion;block;breezeblock;cable-television, internet, phone;alarm, anti_burglary_door, closed_area, entryphone, monitoring;53.25351686555392;19.43092288203127
Ostoja Nieruchomości - Lidzbarska 65,62m2;FLAT;ul. Maksymiliana Klinickiego;Brodnica;360910;5500;65.62;TWO;ostoja-nieruchomosci-lidzbarska-65-62m2-ID4h2ug;2023;ground_floor;gas;primary;full_ownership;garage, usable_room;450;No data;to_completion;block;breezeblock;cable-television, internet, phone;alarm, anti_burglary_door, closed_area, entryphone, monitoring;53.253619566212656;19.430751220654315
Ostoja Nieruchomości - Lidzbarska 37,74m2;FLAT;ul. Maksymiliana Klinickiego;Brodnica;207570;5500;37.74;ONE;ostoja-nieruchomosci-lidzbarska-37-74m2-ID4h2tA;2023;ground_floor;gas;primary;full_ownership;garage, usable_room;350;No data;to_completion;block;breezeblock;cable-television, internet, phone;alarm, anti_burglary_door, closed_area, entryphone, monitoring;53.25356821591413;19.43066538996584
Ostoja Nieruchomości - Lidzbarska 40,84m2;FLAT;ul. Maksymiliana Klinickiego;Brodnica;224620;5500;40.84;ONE;ostoja-nieruchomosci-lidzbarska-40-84m2-ID4h2sY;2023;ground_floor;gas;primary;full_ownership;garage, usable_room;350;No data;to_completion;block;breezeblock;cable-television, internet, phone;alarm, anti_burglary_door, closed_area, entryphone, monitoring;53.25365807889614;19.431298391293353
Ostoja Nieruchomości - Lidzbarska 25,28m2;FLAT;ul. Maksymiliana Klinickiego;Brodnica;139040;5500;25.28;ONE;ostoja-nieruchomosci-lidzbarska-25-28m2-ID4gShw;2023;ground_floor;gas;primary;full_ownership;garage, usable_room;300;No data;to_completion;block;breezeblock;cable-television, internet, phone;alarm, closed_area, entryphone, monitoring;53.253532912548096;19.430949704121417
Ostoja Nieruchomości - Lidzbarska 32,29m2;FLAT;ul. Maksymiliana Klinickiego;Brodnica;174366;5400;32.29;ONE;ostoja-nieruchomosci-lidzbarska-32-29m2-ID4gRwP;2023;floor_1;gas;primary;full_ownership;garage, usable_room;350;No data;to_completion;block;breezeblock;cable-television, internet, phone;alarm, anti_burglary_door, closed_area, entryphone, monitoring;53.2526439;19.4281763
Ostoja Nieruchomości - Lidzbarska 47,27m2;FLAT;ul. Maksymiliana Klinickiego;Brodnica;250531;5300;47.27;TWO;ostoja-nieruchomosci-lidzbarska-47-27m2-ID4gRtO;2023;floor_1;gas;primary;full_ownership;garage, usable_room;450;No data;to_completion;block;breezeblock;cable-television, internet, phone;alarm, anti_burglary_door, closed_area, entryphone, monitoring;53.2526439;19.4281763
Ostoja Nieruchomości - Lidzbarska 39,56m2;FLAT;ul. Maksymiliana Klinickiego;Brodnica;213624;5400;39.56;ONE;ostoja-nieruchomosci-lidzbarska-39-56m2-ID4gRmD;2023;floor_1;gas;primary;full_ownership;garage, usable_room;400;No data;to_completion;block;breezeblock;cable-television, internet, phone;alarm, anti_burglary_door, closed_area, entryphone, monitoring;53.2526439;19.4281763
Kościuszki. Duże, wygodne mieszkanie;FLAT;ul. Kościuszki;Brodnica;350000;4375;80;TWO;kosciuszki-duze-wygodne-mieszkanie-ID4gECm;No data;floor_2;urban;secondary;full_ownership;basement, garage;No data;furniture;ready_to_use;tenement;brick;No data;No data;53.254884602379676;19.40307613862306
Ostoja Nieruchomości - Półwiejska 72,27m2 + balkon;FLAT;ul. Półwiejska;Brodnica;353057;4885;72.27;FOUR;ostoja-nieruchomosci-polwiejska-72-27m2-balkon-ID4gswm;2023;floor_2;urban;primary;full_ownership;air_conditioning, balcony, basement, garage, two_storey;420;No data;to_completion;apartment;breezeblock;cable-television, internet, phone;alarm, anti_burglary_door, closed_area, entryphone, monitoring;53.27076586796069;19.400586208811248
Ostoja Nieruchomości - Półwiejska 61,48m2 + balkon;FLAT;ul. Półwiejska;Brodnica;296584;4824;61.48;FOUR;ostoja-nieruchomosci-polwiejska-61-48m2-balkon-ID4gswd;2023;floor_2;urban;primary;full_ownership;air_conditioning, balcony, basement, garage, two_storey;400;No data;to_completion;apartment;breezeblock;cable-television, internet, phone;alarm, anti_burglary_door, closed_area, entryphone, monitoring;53.2708171976136;19.400586208811248
Ostoja Nieruchomości - Półwiejska 61,57m2 + balkon;FLAT;ul. Półwiejska;Brodnica;296949;4823;61.57;FOUR;ostoja-nieruchomosci-polwiejska-61-57m2-balkon-ID4gsw4;2023;floor_2;urban;primary;full_ownership;air_conditioning, balcony, basement, garage, two_storey;400;No data;to_completion;apartment;breezeblock;cable-television, internet, phone;alarm, anti_burglary_door, closed_area, entryphone, monitoring;53.27066320846996;19.400586208811248
Ostoja Nieruchomości - Półwiejska 61,27m2 + balkon;FLAT;ul. Półwiejska;Brodnica;293107;4784;61.27;FOUR;ostoja-nieruchomosci-polwiejska-61-27m2-balkon-ID4gsuS;2023;floor_2;urban;primary;full_ownership;air_conditioning, balcony, basement, garage, two_storey;400;No data;to_completion;apartment;breezeblock;cable-television, internet, phone;alarm, anti_burglary_door, closed_area, entryphone, monitoring;53.27075303553779;19.400618395319427
Mieszkanie, 72,50 m², Brodnica;FLAT;Brodnica;kujawsko-pomorskie;310000;4276;72.5;FOUR;mieszkanie-72-50-m-brodnica-ID4gmQT;No data;floor_4;other;secondary;co_operative_ownership_with_a_land_and_mortgage_registe;balcony;No data;No data;ready_to_use;No data;cellular_concrete;No data;No data;53.2443479;19.4128298
Mieszkanie na Witosa;FLAT;Brodnica;kujawsko-pomorskie;285000;3958;72;THREE;mieszkanie-na-witosa-ID4fS4H;No data;floor_3;No data;secondary;full_ownership;balcony;No data;No data;ready_to_use;No data;No data;No data;No data;53.25021;19.40285
Mieszkanie, 149 m², Brodnica;FLAT;Brodnica;kujawsko-pomorskie;375000;2517;149;FIVE;mieszkanie-149-m-brodnica-ID47Han;No data;ground_floor;other;secondary;full_ownership;No data;No data;No data;No data;No data;No data;No data;No data;53.2520687;19.3951401
Mieszkanie, 148,96 m², Brodnica;FLAT;Brodnica;kujawsko-pomorskie;375000;2517;148.96;FOUR;mieszkanie-148-96-m-brodnica-ID3q51O;1937;ground_floor;boiler_room;secondary;No data;balcony, basement;No data;No data;No data;tenement;brick;No data;No data;53.2599703;19.3956618
