;title;type of estate;City;Region;Total Price;Price per Square Meter;Area;Room number;Build_year;Floor_no;Heating;MarketType;Building_ownership;Extras_types;Rent;Equipment_types;Construction_status;Building_type;Building_material;Media_types;Security_types;latitude;longitude;Total Price predicted
0;Piękne mieszkanie przy Ul. Marszałkowskiej;FLAT;Warszawa;Śródmieście;960000;20000;48.0;1.0;No data;floor_2;No data;secondary;full_ownership;balcony, garage;No data;dishwasher, fridge, furniture, oven, stove, tv, washing_machine;No data;No data;No data;No data;No data;52.23773;21.00754;798900.61
1;Stara Ochota, 36,5m2 – doskonała lokalizacja!;FLAT;Warszawa;Ochota;499000;13671;36.5;0.0;1953;floor_4;urban;secondary;full_ownership;basement;450;fridge, oven, stove, washing_machine;to_completion;tenement;brick;cable-television, internet;entryphone, monitoring;52.2140805;20.9741655;489796.5
2;Sprzedam 3 pokoje 53m2 Bródno - bezpośrednio;FLAT;Warszawa;Targówek;499000;9415;53.0;2.0;1975;floor_1;urban;secondary;co_operative_ownership_with_a_land_and_mortgage_registe;balcony, basement, garage, lift;700;fridge, oven, stove;ready_to_use;block;concrete_plate;cable-television, internet, phone;anti_burglary_door;52.2898637;21.0297177;522271.67
3;Dwustronne Słoneczne Garaż/Komórka;FLAT;Warszawa;Ursus;814000;10486;77.63;2.0;2010;floor_2;No data;secondary;full_ownership;balcony, garage, lift, terrace, usable_room;700;furniture;ready_to_use;block;other;cable-television, internet;anti_burglary_door, closed_area, entryphone, monitoring;52.18983;20.9113;833335.13
4;Dwustronne Słoneczne Dwa Balkony;FLAT;Warszawa;Włochy;815000;11254;72.42;2.0;2009;floor_2;No data;secondary;No data;balcony, garage;No data;No data;No data;No data;No data;No data;No data;52.20893;20.89386;807677.07
5;Mieszkanie/Apartament, 3 pokoje centrum + garaż;FLAT;Warszawa;Wola;1060000;15940;66.5;2.0;1968;floor_10;urban;secondary;full_ownership;balcony, basement, garage, lift, separate_kitchen;750;dishwasher, fridge, furniture, oven, stove, washing_machine;ready_to_use;block;concrete_plate;cable-television, internet;entryphone, monitoring;52.22648234803318;20.989451213226275;1057715.1
6;Przytulne mieszkanie po generalnym remoncie;FLAT;Warszawa;Praga-Południe;470000;13056;36.0;1.0;1966;ground_floor;urban;secondary;full_ownership;basement;520;furniture;No data;block;brick;No data;No data;52.2462955;21.1048869;470546.87
7;Twoje pierwsze mieszkanie w Warszawie;FLAT;Warszawa;Ursus;475000;10000;47.5;1.0;2001;floor_6;urban;secondary;full_ownership;balcony, garage, lift;800;fridge, furniture, oven, stove, washing_machine;ready_to_use;block;concrete;cable-television, internet;closed_area, entryphone;52.185521;20.867976;491130.83
8;2 pokoje do remontu - Bemowo okazja!;FLAT;Warszawa;Bemowo;399000;10902;36.6;1.0;1980;floor_1;No data;secondary;co_operative_ownership;balcony, basement, lift, separate_kitchen;570;No data;to_renovation;block;concrete_plate;No data;entryphone;52.2498094;20.9145184;419169.6
9;ul. Pięciolinii, 85m2, Bezpośrednio, Blisko metro;FLAT;Warszawa;Ursynów;910000;10706;85.0;3.0;1979;floor_4;urban;secondary;co_operative_ownership;balcony, basement, separate_kitchen;No data;No data;ready_to_use;block;concrete_plate;cable-television, internet, phone;entryphone;52.15638404313575;21.026131632818625;1026272.96
10;3 pokoje | Saska Kępa | widna kuchnia;FLAT;Warszawa;Praga-Południe;669042;11990;55.8;2.0;1962;floor_3;urban;secondary;full_ownership;basement;856;furniture;to_renovation;block;other;No data;No data;52.23078;21.06375;758805.43
11;2 pokoje z oddzielną windą kuchnią;FLAT;Warszawa;Śródmieście;435000;14500;30.0;1.0;1973;floor_3;urban;secondary;No data;No data;580;furniture;ready_to_use;block;other;No data;No data;52.21736;21.04463;459049.04
12;2 pokoje na Powiślu;FLAT;Warszawa;Śródmieście;590000;16389;36.0;1.0;1965;floor_3;urban;secondary;co_operative_ownership_with_a_land_and_mortgage_registe;balcony, lift;630;No data;to_completion;block;other;No data;No data;52.23661;21.02752;554557.28
13;OKAZJA! Obok Factory Ursus! Klucze na wiosnę!;FLAT;Warszawa;Ursus;399990;10254;39.01;1.0;2023;floor_1;urban;secondary;full_ownership;balcony, garage, lift;350;No data;to_completion;block;brick;cable-television, internet, phone;anti_burglary_door, entryphone, monitoring;52.20498085723644;20.87927783967284;441392.61
14;Property Tour na YouTube - link w ogłoszeniu!;FLAT;Warszawa;Wilanów;9500000;33808;281.0;4.0;2021;floor_2;No data;secondary;full_ownership;garage, terrace, usable_room;No data;dishwasher, fridge, furniture, oven, stove, tv, washing_machine;ready_to_use;No data;No data;No data;No data;52.17538;21.08207;8185920.51
15;Apartament 168m2 z widokiem na wodę!;FLAT;Warszawa;Mokotów;6000000;35714;168.0;3.0;2018;floor_2;No data;secondary;No data;garage, lift, terrace;No data;No data;No data;No data;No data;No data;closed_area, entryphone, monitoring;52.18812;21.03922;5935480.58
16;2-pokojowe mieszkanie 45m2 + balkon Bezpośrednio;FLAT;Warszawa;Rembertów;447084;9900;45.16;1.0;2023;floor_5;No data;primary;full_ownership;garage, balcony, lift;No data;No data;to_completion;No data;No data;No data;closed_area;52.2745847;21.1174715;458207.6
17;BEZPOŚREDNIO! Mieszkanie w rewitalizowanej kamieni;FLAT;Warszawa;Włochy;368000;11987;30.7;0.0;1935;floor_1;boiler_room;secondary;full_ownership;No data;300;No data;to_completion;tenement;brick;cable-television, internet;anti_burglary_door, closed_area, entryphone, monitoring;52.2086634;20.9131541;409400.38
18;Przytulna kawalerka w doskonałej lokalizacji;FLAT;Warszawa;Śródmieście;565000;20179;28.0;0.0;1965;floor_5;urban;secondary;co_operative_ownership_with_a_land_and_mortgage_registe;basement, lift, separate_kitchen;260;dishwasher, fridge, washing_machine;ready_to_use;block;concrete_plate;cable-television, internet;anti_burglary_door, entryphone, monitoring;52.217675;21.232198;555495.15
19;Słoneczne 4 pokoje na Bemowie;FLAT;Warszawa;Bemowo;750000;10417;72.0;3.0;1976;floor_higher_10;urban;secondary;co_operative_ownership_with_a_land_and_mortgage_registe;balcony, basement, lift, separate_kitchen;800;No data;ready_to_use;block;reinforced_concrete;cable-television;No data;52.24091;20.91133;736141.5
20;3-pokojowy apartament przy metrze Ursynów;FLAT;Warszawa;Ursynów;999000;13972;71.5;2.0;2002;floor_2;urban;secondary;full_ownership;balcony, garage;600;dishwasher, fridge, furniture, oven;ready_to_use;apartment;brick;No data;No data;52.13785;21.02912;946074.94
21;Centrum - 3 pokoje z miejscem parkingowym;FLAT;Warszawa;Śródmieście;968000;16982;57.0;2.0;1969;floor_3;urban;secondary;co_operative_ownership;balcony, basement, garage, lift, separate_kitchen;480;dishwasher, fridge, furniture, oven, stove;ready_to_use;block;brick;cable-television, internet;anti_burglary_door, entryphone, monitoring;52.23313;21.019;1012229.4
22;Moja Północna II | mieszkanie B 23;FLAT;Warszawa;Białołęka;419520;13800;30.4;1.0;2023;floor_2;No data;primary;No data;balcony, garage, lift;No data;No data;to_completion;No data;No data;internet, phone;entryphone;52.31832;20.9607;440125.73
23;Wyjątkowe Mieszkanie Eolian Park LIP-3-47;FLAT;Warszawa;Ursus;560883;9300;60.31;1.0;2023;floor_3;No data;primary;No data;balcony, garage, lift;No data;No data;No data;No data;No data;No data;No data;52.19580602658861;20.90674769311525;585568.67
24;Warszawa Mieszkanie na sprzedaż;FLAT;Warszawa;Białołęka;380000;9383;40.5;0.0;2014;floor_1;urban;secondary;full_ownership;balcony;417;furniture;No data;block;other;cable-television, internet;closed_area, entryphone, monitoring;52.3437054;21.0548154;410480.51
25;Bezpośrednio pl. Inwalidów gotowe do zamieszkania;FLAT;Warszawa;Żoliborz;900000;16981;53.0;1.0;No data;floor_3;urban;secondary;full_ownership;basement, separate_kitchen;675;dishwasher, fridge, furniture, oven, stove, washing_machine;ready_to_use;tenement;brick;cable-television, internet;anti_burglary_door, entryphone, roller_shutters;52.26433558076956;20.98946280824278;910711.68
26;Atrakcyjne 2-pokojowe mieszkanie. Basen na osiedlu;FLAT;Warszawa;Ursus;433000;9312;46.5;1.0;2002;floor_3;urban;secondary;full_ownership;basement, garage, lift;590;No data;ready_to_use;block;other;cable-television, internet;closed_area, entryphone, monitoring;52.18329;20.8685;479778.66
27;Sprzedam mieszkanie - ul. Syreny 9. Metro Młynów;FLAT;Warszawa;Wola;670000;12642;53.0;2.0;No data;floor_1;urban;secondary;No data;No data;600;No data;to_completion;block;No data;cable-television, internet, phone;anti_burglary_door, entryphone;52.2380747;20.9621367;680681.87
28;Bezpośrednio NOWE mieszkanie z widokiem na Wisłę;FLAT;Warszawa;Śródmieście;5600000;40000;140.0;3.0;No data;floor_3;No data;secondary;full_ownership;air_conditioning, balcony, garage, lift, terrace;1600;dishwasher, fridge, furniture, oven, stove, tv, washing_machine;ready_to_use;apartment;No data;cable-television, internet, phone;anti_burglary_door, entryphone, monitoring;52.2301846;21.0414263;5442326.48
29;Metro Trocka: do własnej aranżacji, grunt ure;FLAT;Warszawa;Targówek;530000;9925;53.4;2.0;1970;floor_5;urban;secondary;full_ownership;balcony, basement, lift;570;furniture;to_renovation;block;other;cable-television, internet, phone;anti_burglary_door, entryphone, monitoring;52.27534;21.05563;546161.51
30;Luksusowy Apartament 2 Pokoje;FLAT;Warszawa;Wola;1190000;25460;46.74;1.0;2019;floor_6;No data;secondary;full_ownership;air_conditioning, garage, lift;600;dishwasher, fridge, furniture, oven, stove, tv, washing_machine;ready_to_use;apartment;No data;cable-television, internet, phone;anti_burglary_door, closed_area, entryphone, monitoring;52.2297544;20.9806246;2410750.6
31;Tuż obok Metra które powstanie Praga Południe;FLAT;Warszawa;Praga-Południe;465000;9647;48.2;1.0;1980;floor_5;No data;secondary;No data;balcony, basement;No data;No data;to_renovation;No data;No data;No data;No data;52.23777;21.07731;473583.39
32;3 pokoje na Ursynowie blisko metra;FLAT;Warszawa;Ursynów;600000;9231;65.0;2.0;1988;floor_2;urban;secondary;co_operative_ownership;basement, balcony;1100;No data;to_renovation;block;breezeblock;No data;No data;52.13908186534;21.056682033913;600976.36
33;Zamieszkaj w cichej i pięknej okolicy.;FLAT;Warszawa;Białołęka;565000;8333;67.8;2.0;2010;floor_2;urban;secondary;full_ownership;balcony, garage;720;dishwasher, fridge, furniture, oven, stove, washing_machine;ready_to_use;block;brick;No data;anti_burglary_door, closed_area, entryphone, monitoring;52.36031;21.03529;625008.14
34;Segment 115 m2;FLAT;Warszawa;Ursus;889000;7745;114.79;3.0;2022;No data;No data;primary;full_ownership;garage, garden, two_storey;No data;No data;No data;ribbon;breezeblock;No data;closed_area;52.19512;20.88379;1037611.08
35;3 pokojowe na zielonych Bielanach. Ciche.;FLAT;Warszawa;Bielany;548000;10745;51.0;2.0;1974;ground_floor;urban;secondary;full_ownership;balcony, basement, lift;530;No data;No data;block;concrete_plate;No data;entryphone;52.2933234;20.928664;576401.82
36;2 pok przytulne mieszkanie Włochy Krańcowa 36m2;FLAT;Warszawa;Włochy;520000;14444;36.0;1.0;2012;floor_3;urban;secondary;full_ownership;balcony, basement, lift, separate_kitchen;550;fridge, furniture, oven, stove, washing_machine;ready_to_use;block;breezeblock;cable-television, internet, phone;anti_burglary_door, closed_area, entryphone, monitoring, roller_shutters;52.19622214554899;20.923302045754987;512486.59
37;SPRZEDAM | 3 POKOJE | OFERTA PRYWATNA;FLAT;Warszawa;Ursus;649900;12498;52.0;2.0;2013;floor_1;urban;secondary;full_ownership;garage, lift;600;dishwasher, fridge, furniture, oven, stove, washing_machine;ready_to_use;block;No data;cable-television, internet;closed_area, entryphone, monitoring;52.2069706;20.8669994;673013.09
38;Bezpośrednio, Komfortowe 42 m2, Gocław;FLAT;Warszawa;Praga-Południe;540000;12857;42.0;1.0;No data;floor_7;urban;secondary;co_operative_ownership;balcony, basement, lift, separate_kitchen;370;furniture, oven, stove;ready_to_use;block;concrete_plate;No data;entryphone;52.2201541;21.0987282;523484.68
39;Sprzedam -zaciszne 50m2 po remoncie;FLAT;Warszawa;Ursus;529000;10580;50.0;2.0;1952;floor_3;urban;secondary;full_ownership;basement, garage, usable_room;550;No data;ready_to_use;block;brick;No data;No data;52.193289;20.892144;605023.34
40;Tarchomin, Bezpośredni, Gotowe. 3pok, 52m2, Balkon;FLAT;Warszawa;Białołęka;510000;9796;52.06;1.0;2020;floor_1;No data;primary;No data;No data;No data;No data;No data;No data;No data;No data;No data;52.3448225;20.941277;519893.94
41;2pok. 37m2 na Ochocie;FLAT;Warszawa;Ochota;500000;13514;37.0;1.0;No data;floor_7;urban;secondary;full_ownership;balcony, basement, lift;550;furniture;No data;No data;No data;cable-television;alarm, anti_burglary_door, entryphone;52.2145328;20.969015;496584.2
42;Rezerwacja! Rezerwacja! Rezerwacja!;FLAT;Warszawa;Śródmieście;880000;14667;60.0;2.0;No data;floor_3;urban;secondary;full_ownership;basement, separate_kitchen;700;fridge, furniture, oven, stove, washing_machine;ready_to_use;tenement;brick;No data;closed_area, entryphone, monitoring;52.23614;21.00817;867217.16
43;Łowicka, Mokotów, Kawalerka - Bezpośrednio;FLAT;Warszawa;Mokotów;499000;17821;28.0;0.0;1950;floor_2;urban;secondary;co_operative_ownership_with_a_land_and_mortgage_registe;basement;550;dishwasher, fridge, furniture, stove, washing_machine;ready_to_use;tenement;brick;cable-television, internet, phone;anti_burglary_door, entryphone;52.201750192661926;21.006067148132335;520490.37
44;Bezpośrednio, 2 pokoje niedaleko metra;FLAT;Warszawa;Praga-Północ;569000;16735;34.0;1.0;1953;floor_3;urban;secondary;full_ownership;balcony, basement;350;fridge, furniture, oven, stove;ready_to_use;tenement;brick;cable-television, internet, phone;anti_burglary_door, entryphone, monitoring;52.2633;21.02832;514340.21
45;3-pokojowe mieszkanie 70m2 + loggia Bez Prowizji;FLAT;Warszawa;Bielany;842000;12022;70.04;2.0;2022;floor_1;No data;primary;full_ownership;garage, lift;No data;No data;to_completion;No data;No data;No data;closed_area;52.302160658005;20.927214581104;782828.92
46;Dwupokojowe Mieszkanie w okolicy Placu Bankowego;FLAT;Warszawa;Wola;750000;14666;51.14;1.0;1951;floor_2;urban;secondary;full_ownership;No data;684;No data;to_renovation;block;brick;internet;anti_burglary_door, entryphone;52.24399;20.99694;750238.34
47;Oddanie IIIkw 2023 / Widna kuchnia 2 pokoje;FLAT;Warszawa;Mokotów;547000;12816;42.68;1.0;2023;floor_5;urban;primary;full_ownership;balcony, garage, lift, separate_kitchen;No data;No data;No data;block;brick;cable-television, internet, phone;closed_area, entryphone, monitoring;52.20417;21.00083;520521.25
48;Bez Prowizji | 2 pok | bez Pcc | Białołęka;FLAT;Warszawa;Białołęka;399999;8430;47.45;1.0;2022;floor_1;urban;primary;full_ownership;balcony, garage, lift;400;No data;ready_to_use;block;concrete;cable-television, internet, phone;anti_burglary_door, closed_area, entryphone, monitoring;52.3283;21.0387;485092.79
49;Mieszkanie przy Ogrodzie Saskim;FLAT;Warszawa;Śródmieście;999000;18500;54.0;1.0;1957;floor_3;urban;secondary;full_ownership;basement, lift, separate_kitchen;760;No data;ready_to_use;tenement;brick;No data;No data;52.2380090331024;21.00764044970704;994078.79
50;Wum*Rozkładowe*Niski blok*Balkon*;FLAT;Warszawa;Włochy;599000;10153;59.0;2.0;1970;floor_4;urban;secondary;full_ownership;balcony, basement;700;fridge, furniture, oven, stove;to_completion;block;concrete_plate;cable-television, internet, phone;entryphone, monitoring;52.19319;20.97183;607560.19
51;2-pokojowe mieszkanie 46m2 + balkon Bezpośrednio;FLAT;Warszawa;Bielany;640000;13787;46.42;1.0;2022;floor_2;No data;primary;full_ownership;garage, balcony, lift;No data;No data;to_completion;No data;No data;No data;closed_area;52.302160658005;20.927214581104;542401.72
52;Bez prowizji / ogródek / 15 min do centrum;FLAT;Warszawa;Ursus;902000;7343;122.84;3.0;2022;floor_1;gas;primary;full_ownership;garage, garden, two_storey;No data;No data;No data;block;No data;No data;closed_area, entryphone, monitoring;52.19832;20.89021;1057043.46
53;4-pokojowe mieszkanie/ 2 duże balkony/garaż;FLAT;Warszawa;Ursus;810000;10672;75.9;3.0;2002;floor_1;boiler_room;secondary;full_ownership;balcony, garage, lift, separate_kitchen;1400;dishwasher, fridge, furniture, oven, stove, tv, washing_machine;ready_to_use;apartment;cellular_concrete;cable-television, internet;anti_burglary_door, closed_area, entryphone, monitoring;52.18955772612314;20.890312225903337;855917.84
54;2 pokoje przy Polach Mokotowskich;FLAT;Warszawa;Mokotów;680000;15814;43.0;1.0;1962;floor_2;other;secondary;co_operative_ownership;basement, garage;600;furniture;No data;block;No data;cable-television, internet;No data;52.2088056;21.001838;622802.74
55;Wyjątkowy loft z widokiem na panoramę centrum;FLAT;Warszawa;Wola;899650;15999;56.23;2.0;2022;floor_9;urban;secondary;full_ownership;basement, garage, lift, terrace, two_storey, usable_room;560;No data;to_completion;loft;concrete;cable-television, internet, phone;anti_burglary_door, entryphone, monitoring;52.231839436891;20.93731470666;1038083.2
56;Wyjątkowy loft z balkonem, cisza, widok na zieleń!;FLAT;Warszawa;Wola;798400;14199;56.23;2.0;2022;floor_3;urban;secondary;full_ownership;balcony, garage, lift, terrace, two_storey, usable_room;530;No data;to_completion;loft;concrete;cable-television, internet, phone;anti_burglary_door, entryphone, monitoring;52.231839436891;20.93731470666;828352.46
57;Mieszkanie czteropokojowe na Odolanach;FLAT;Warszawa;Wola;1350000;17733;76.13;3.0;2017;floor_6;urban;secondary;full_ownership;balcony, lift, separate_kitchen;No data;No data;ready_to_use;block;cellular_concrete;cable-television;closed_area, monitoring;52.2274;20.9538;1260713.4
58;5 mieszkań na 1Kw/ Po remoncie blisko Metra;FLAT;Warszawa;Praga-Północ;1600000;8163;196.0;4.0;No data;floor_4;urban;secondary;full_ownership;No data;3600;fridge, furniture, oven, stove, washing_machine;ready_to_use;house;brick;No data;entryphone, monitoring;52.2489516;21.0406548;2071320.17
59;Cesja kawalerki na Woli;FLAT;Warszawa;Wola;578000;17967;32.17;0.0;2021;floor_8;urban;primary;No data;balcony, garage, lift;No data;dishwasher, fridge, furniture, oven, stove;ready_to_use;apartment;other;No data;anti_burglary_door, entryphone, monitoring;52.22441;20.94515;569420.38
60;Na Start | 2pok | DWA balkony | LUB Inwestycyjne!;FLAT;Warszawa;Wilanów;895000;15982;56.0;1.0;2011;floor_3;urban;secondary;full_ownership;balcony, lift, separate_kitchen;600;dishwasher, fridge, furniture, oven, stove, tv, washing_machine;ready_to_use;apartment;reinforced_concrete;cable-television, internet, phone;alarm, anti_burglary_door, closed_area, entryphone, monitoring;52.1608237;21.0780113;918093.4
61;Pracujący apartament z tarasem przy Grzybowskiej!;FLAT;Warszawa;Wesoła;690000;24433;28.24;0.0;2022;floor_2;No data;secondary;full_ownership;air_conditioning, balcony, lift, terrace;No data;fridge, furniture, stove, tv;ready_to_use;apartment;No data;No data;closed_area;52.23424776182207;20.989391440475487;849672.77
62;Miłe mieszkanie na Żoliborzu;FLAT;Warszawa;Żoliborz;630000;16579;38.0;1.0;1960;floor_5;urban;secondary;No data;balcony, basement, lift;No data;dishwasher, fridge, furniture, oven, stove, washing_machine;ready_to_use;block;other;cable-television, internet;anti_burglary_door, entryphone, monitoring;52.26999;20.96649;516132.42
63;Bez Prowizji | 3 pokoje | bez Pcc | wykończone |;FLAT;Warszawa;Białołęka;569999;11633;49.0;2.0;2022;floor_1;urban;secondary;full_ownership;balcony, basement, garage, lift, usable_room;450;furniture;ready_to_use;block;concrete;cable-television, internet, phone;anti_burglary_door, closed_area, entryphone, monitoring;52.3309;21.0461;576985.41
64;Apartament z dużym tarasem na bliskiej Woli;FLAT;Warszawa;Wola;1850000;17130;108.0;2.0;2008;floor_8;urban;secondary;full_ownership;balcony, garage, lift, two_storey;900;dishwasher, fridge, furniture, oven, stove, washing_machine;ready_to_use;apartment;cellular_concrete;cable-television, internet;anti_burglary_door, entryphone, monitoring;52.23040330999678;20.97103092735289;1648570.88
65;Mieszkanie w najpiękniejszej kamienicy w Warszawie;FLAT;Warszawa;Śródmieście;1220000;19974;61.08;1.0;1935;floor_2;urban;secondary;full_ownership;balcony, lift;900;furniture;No data;tenement;No data;No data;anti_burglary_door, closed_area, entryphone, monitoring;52.226928;21.0125728;1154457.8
66;Mieszkanie 60,1 m2 | 2 pokoje | BEZPOŚREDNIO;FLAT;Warszawa;Praga-Południe;781000;12995;60.1;1.0;2000;floor_2;urban;secondary;co_operative_ownership;balcony, basement, garage;No data;No data;ready_to_use;block;No data;No data;closed_area, entryphone, monitoring;52.2312959;21.0862978;778050.48
67;Żoliborz Park Kellera gotowe 3 pok. I piętro +balk;FLAT;Warszawa;Bielany;1116220;17000;65.66;2.0;2021;floor_1;boiler_room;primary;full_ownership;balcony, garage, lift;10;No data;to_completion;apartment;silikat;cable-television, internet, phone;anti_burglary_door, closed_area, entryphone, roller_shutters;52.23614;21.00817;1091831.58
68;Bezposrednio 3/4 pokoje,osiedle strzeżone,metro;FLAT;Warszawa;Bemowo;799900;12547;63.75;2.0;2005;floor_2;urban;secondary;full_ownership;balcony, garage, lift, separate_kitchen;No data;fridge, furniture, oven, stove, tv, washing_machine;ready_to_use;apartment;other;cable-television, internet;closed_area, entryphone, monitoring;52.2524675;20.923903;787320.48
69;Kawalerka 27m2 idealna pod inwestycje na Woli;FLAT;Warszawa;Wola;458999;17000;27.0;0.0;1980;floor_higher_10;urban;secondary;co_operative_ownership;balcony, basement, lift;500;furniture;No data;block;No data;cable-television, internet;alarm, anti_burglary_door, entryphone, roller_shutters;52.2347765;20.9907127;496319.41
70;Kawalerka na sprzedaż, Hoża;FLAT;Warszawa;Śródmieście;560000;23431;23.9;0.0;1961;floor_4;urban;secondary;full_ownership;basement, lift, usable_room;400;furniture;ready_to_use;block;No data;No data;No data;52.22657725;21.01641624;553529.94
71;METRO | Widne | Rozkładowe;FLAT;Warszawa;Bielany;740000;11455;64.6;3.0;1979;floor_6;urban;secondary;co_operative_ownership_with_a_land_and_mortgage_registe;balcony, basement, lift;732;fridge, furniture, oven, stove;ready_to_use;block;concrete_plate;cable-television, internet, phone;anti_burglary_door, entryphone;52.29332;20.92866;745479.16
72;Trzypokojowe mieszkanie na Gocławiu;FLAT;Warszawa;Praga-Południe;780000;11437;68.2;2.0;1995;floor_1;urban;secondary;co_operative_ownership_with_a_land_and_mortgage_registe;balcony, basement, lift;800;dishwasher, fridge, oven, stove;ready_to_use;block;No data;cable-television, internet, phone;anti_burglary_door, entryphone, roller_shutters;52.2293443;21.0980687;770426.52
73;Kawalerka na Mokotowie;FLAT;Warszawa;Mokotów;495000;15968;31.0;0.0;1973;ground_floor;urban;secondary;full_ownership;No data;450;No data;No data;block;No data;internet;anti_burglary_door, entryphone;52.166088;21.006868;505950.42
74;Marywilska | Warszawa | Kawalerka | 2018r;FLAT;Warszawa;Białołęka;399999;12870;31.08;0.0;2018;floor_3;urban;secondary;full_ownership;balcony, basement, garage, lift, separate_kitchen;400;furniture, washing_machine;ready_to_use;block;concrete;cable-television, internet, phone;anti_burglary_door, closed_area, entryphone, monitoring;52.3192;20.9996;431624.92
75;Dywizjonu 303, cicha oklica, blisko metra;FLAT;Warszawa;Bemowo;620000;12518;49.53;1.0;2010;ground_floor;urban;secondary;full_ownership;balcony, garage, lift, separate_kitchen;600;dishwasher, fridge, furniture, oven, stove, washing_machine;ready_to_use;block;silikat;cable-television, internet;closed_area, entryphone, monitoring;52.246165727185264;20.902746237512225;631925.82
76;3-pokojowe mieszkanie 68m2 + loggia Bez Prowizji;FLAT;Warszawa;Mokotów;953120;14000;68.08;2.0;2024;floor_1;No data;primary;full_ownership;garage, lift;No data;No data;to_completion;No data;No data;No data;closed_area;52.209558323492;21.064195704369;914212.86
77;3pok., 55m2, osiedle Aurora, Warszawa Włochy;FLAT;Warszawa;Włochy;655000;11913;54.98;2.0;2023;floor_6;No data;secondary;full_ownership;balcony, garage, lift, separate_kitchen;No data;No data;to_completion;No data;No data;No data;No data;52.190041;20.9271919;723673.24
78;Przytulne 36m2, 2-pokojowe, gotowe do wejścia!;FLAT;Warszawa;Praga-Południe;420000;11667;36.0;1.0;1964;floor_4;urban;secondary;full_ownership;basement;450;dishwasher, fridge, furniture, oven, stove, washing_machine;ready_to_use;block;other;No data;entryphone;52.24886;21.09341;441620.41
79;4-pokojowe mieszkanie 85m2 + balkon;FLAT;Warszawa;Wola;1558000;18271;85.27;3.0;2023;floor_5;No data;primary;full_ownership;garage, balcony, lift;No data;No data;to_completion;No data;No data;No data;No data;52.223824273231;20.971056233731;1473894.4
80;Mieszkanie 3 pokojowe 51,7m2 z balkonem i tarasem;FLAT;Warszawa;Wola;900000;17408;51.7;2.0;2016;floor_6;urban;secondary;full_ownership;air_conditioning, balcony, basement, garage, lift, separate_kitchen, terrace;600;dishwasher, fridge, furniture, oven, stove, tv, washing_machine;ready_to_use;block;reinforced_concrete;cable-television, internet;anti_burglary_door, closed_area, entryphone, monitoring;52.221254542939086;20.93498661901853;899116.89
81;3pokoje cicha okolica metro Ulrychów Bezpośrednio!;FLAT;Warszawa;Wola;790000;14852;53.19;2.0;2010;floor_5;urban;secondary;full_ownership;air_conditioning, balcony, garage, lift;510;dishwasher, fridge, furniture, oven, stove, washing_machine;ready_to_use;block;No data;cable-television, internet;entryphone, monitoring;52.239477320061305;20.92662427490233;810007.6
82;Nowe gustownie wykończone 4 pokoje, 2 łazienki;FLAT;Warszawa;Mokotów;1295000;14800;87.5;0.0;2021;floor_4;urban;secondary;full_ownership;balcony, lift, terrace;No data;No data;No data;No data;No data;cable-television, internet;No data;52.18125;21.0455;1231435.2
83;Apartamentowiec - blisko Galeria Mokotów, lotnisko;FLAT;Warszawa;Mokotów;1450000;14434;100.46;2.0;2014;floor_2;urban;secondary;full_ownership;balcony, basement, garage, lift;1200;No data;No data;No data;No data;cable-television, internet;No data;52.1764506;20.9935391;1281333.7
84;Nowe Super gustownie wykończone 2 pokoje;FLAT;Warszawa;Mokotów;850000;16667;51.0;1.0;2021;floor_1;urban;secondary;full_ownership;balcony, lift;No data;No data;No data;No data;No data;cable-television, internet;No data;52.18125;21.0455;847698.43
85;Mieszkanie, 55 m², Warszawa;FLAT;Warszawa;Centrum;1090000;19818;55.0;1.0;1915;floor_4;No data;secondary;No data;balcony, lift;No data;No data;No data;tenement;No data;No data;No data;52.225131;21.016985;1076615.98
86;3 pokoje, oddzielna kuchnia po remoncie! Mokotów;FLAT;Warszawa;Mokotów;699000;12482;56.0;2.0;No data;floor_8;No data;secondary;No data;balcony, basement, lift, separate_kitchen;380;furniture, stove;ready_to_use;block;No data;No data;entryphone;52.19832;21.01715;716272.77
87;Apartament na Zawadach z ogrodem i parkingami;FLAT;Warszawa;Wilanów;2500000;14970;167.0;4.0;2010;floor_1;gas;secondary;full_ownership;air_conditioning, balcony, basement, garage, garden, lift, terrace, usable_room;950;dishwasher, fridge, furniture, oven, stove, tv, washing_machine;ready_to_use;apartment;brick;cable-television, internet, phone;alarm, anti_burglary_door, closed_area, entryphone, monitoring, roller_shutters;52.1688399;21.1158806;2371877.05
88;Cegła 1957r | 2 Pok + Kuchnia | Loggia | 2 Stronne;FLAT;Warszawa;Praga-Południe;515000;11075;46.5;1.0;1957;floor_2;urban;secondary;full_ownership;balcony, basement;540;No data;ready_to_use;tenement;brick;No data;anti_burglary_door, entryphone, monitoring;52.2498;21.0804;514105.0
89;2 pokoje + oddzielna kuchnia, Szmulki;FLAT;Warszawa;Praga-Północ;389000;10514;37.0;1.0;1976;floor_9;No data;secondary;No data;basement;450;furniture;No data;No data;No data;No data;No data;52.26071;21.05639;401846.91
90;3 Pokoje |Garaż i Komórka W Cenie | Metro;FLAT;Warszawa;Mokotów;1150000;15532;74.04;2.0;2012;floor_4;urban;secondary;full_ownership;garage, lift;750;dishwasher, fridge, furniture, oven, stove, washing_machine;ready_to_use;apartment;No data;No data;anti_burglary_door, closed_area, entryphone, monitoring;52.17155;21.01638;1117141.2
91;Kawalerka na Woli;FLAT;Warszawa;Wola;450000;15000;30.0;0.0;1955;floor_3;No data;secondary;full_ownership;No data;350;No data;to_renovation;block;brick;No data;No data;52.245891600733;20.9440191426;479065.49
92;3 pokojowe mieszkanie TBS 67,5 m2 (Metro Bemowo);FLAT;Warszawa;Bemowo;295000;4370;67.5;2.0;2007;floor_3;No data;secondary;share;balcony, basement, lift, separate_kitchen;1776;dishwasher, oven, stove;No data;block;No data;cable-television, internet;anti_burglary_door, entryphone;52.2419112;20.9053732;628019.4
93;2-pokojowe mieszkanie 43m2 + taras Bez Pośredników;FLAT;Warszawa;Włochy;580905;13500;43.03;1.0;2022;floor_1;No data;primary;full_ownership;garage, terrace, balcony, lift;No data;No data;to_completion;No data;No data;No data;closed_area;52.203145689491;20.928492537827;553989.72
94;5-pokojowe mieszkanie 112m2 + balkon Bez Prowizji;FLAT;Warszawa;Wola;2384000;21114;112.91;4.0;2023;floor_7;No data;primary;full_ownership;garage, balcony, lift;No data;No data;to_completion;No data;No data;No data;No data;52.223824273231;20.971056233731;2076430.44
95;3 pokoje, 62 m2, Warszawa Włochy, ul. Szczęsna;FLAT;Warszawa;Włochy;775000;12482;62.09;2.0;2012;floor_2;boiler_room;secondary;full_ownership;balcony, garage, lift;970;dishwasher, fridge, furniture, oven, stove, washing_machine;ready_to_use;block;silikat;cable-television, internet;closed_area, entryphone, monitoring;52.2095801;20.9299477;767547.06
96;3-pokojowe mieszkanie 62m2 + balkon Bezpośrednio;FLAT;Warszawa;Praga-Południe;756216;12150;62.24;2.0;2023;floor_2;No data;primary;full_ownership;garage, balcony, lift;No data;No data;to_completion;No data;No data;No data;No data;52.25383;21.06828;767012.84
97;2-pokojowe mieszkanie 34m2 + ogródek Bez Prowizji;FLAT;Warszawa;Praga-Południe;500044;14477;34.54;1.0;2023;ground_floor;No data;primary;full_ownership;garage, garden, lift;No data;No data;to_completion;No data;No data;No data;No data;52.25383;21.06828;487440.85
98;Mieszkanie 35 m2 Dolny Mokotów, Stegny ul Aignera;FLAT;Warszawa;Mokotów;665000;19000;35.0;0.0;2020;No data;No data;secondary;full_ownership;balcony;280;dishwasher, fridge, furniture, oven, stove, washing_machine;ready_to_use;block;No data;cable-television, internet;entryphone, monitoring;52.19944;21.03361;539569.76
99;4-pokojowe mieszkanie 70m2 + 2 balkony;FLAT;Warszawa;Rembertów;593697;8450;70.26;3.0;2023;floor_1;No data;primary;full_ownership;garage, balcony, lift;No data;No data;to_completion;No data;No data;No data;closed_area;52.2745847;21.1174715;619366.09
100;2 pok. z ogródkiem 45m2, cesja, płatność 30/70;FLAT;Warszawa;Włochy;569000;12453;45.69;1.0;2023;ground_floor;urban;primary;full_ownership;garage, garden, lift, terrace;No data;No data;to_completion;block;No data;No data;anti_burglary_door, entryphone, monitoring;52.19263148535723;20.9329069178772;537645.78
101;Sadyba na inwestycję;FLAT;Warszawa;Mokotów;590000;10612;55.6;3.0;1971;floor_4;urban;secondary;co_operative_ownership;balcony;No data;No data;to_renovation;block;No data;cable-television, internet;entryphone;52.18748;21.0611;685995.85
102;Trzy pokoje na Bemowie z miejscem postojowym.;FLAT;Warszawa;Śródmieście;645000;10403;62.0;2.0;1984;floor_6;urban;secondary;full_ownership;air_conditioning, balcony, basement, garage, lift, separate_kitchen;889;dishwasher, fridge, furniture, oven, washing_machine;ready_to_use;block;concrete_plate;cable-television, internet, phone;anti_burglary_door, entryphone;52.2308;20.9102;655018.35
103;1-pokojowe mieszkanie 26m2 + balkon Bezpośrednio;FLAT;Warszawa;Wola;497000;19115;26.0;0.0;2023;floor_1;No data;primary;full_ownership;garage, balcony, lift;No data;No data;to_completion;No data;No data;No data;No data;52.223824273231;20.971056233731;526684.15
104;Dwa pokoje na Bielanach.;FLAT;Warszawa;Bielany;470000;10805;43.5;1.0;1972;floor_4;urban;secondary;full_ownership;balcony, basement, lift, separate_kitchen;470;fridge, furniture, oven, stove, washing_machine;ready_to_use;block;concrete_plate;cable-television, internet, phone;anti_burglary_door, entryphone, monitoring;52.2738;20.9384;471887.65
105;3-pokojowe na Bielanach gotowe do wprowadzenia.;FLAT;Warszawa;Bielany;579000;10432;55.5;2.0;1972;floor_1;urban;secondary;co_operative_ownership;balcony, basement, lift, separate_kitchen;500;fridge, furniture, oven, stove, washing_machine;ready_to_use;block;concrete_plate;cable-television, internet, phone;anti_burglary_door, entryphone, monitoring;52.2704;20.9455;605471.14
106;1-pokojowe mieszkanie 31m2 + balkon;FLAT;Warszawa;Bielany;479000;15407;31.09;0.0;2024;floor_4;No data;primary;full_ownership;garage, balcony, lift;No data;No data;to_completion;No data;No data;No data;closed_area;52.302160658005;20.927214581104;492077.33
107;Gotowe do wprowadzenia 2 pokojowe z 2 ogródkami;FLAT;Warszawa;Wilanów;755000;14519;52.0;1.0;2017;ground_floor;urban;secondary;full_ownership;garage, garden, lift, terrace;550;dishwasher, fridge, oven, stove, washing_machine;ready_to_use;apartment;brick;cable-television, internet;anti_burglary_door, closed_area, entryphone;52.1611563;21.071595;763958.85
108;Sprzedam 3 pokoje, blisko metra M2, Bemowo;FLAT;Warszawa;Bemowo;739000;12374;59.72;2.0;2008;floor_1;No data;secondary;full_ownership;balcony, garage, lift;No data;dishwasher, fridge, oven, stove, washing_machine;ready_to_use;block;brick;cable-television, internet;anti_burglary_door, closed_area, entryphone, monitoring;52.24631024377325;20.906780279870624;742208.0
109;Park Pelargonii | 3-pok. mieszkanie M4;FLAT;Warszawa;Wawer;790000;9382;84.2;2.0;No data;floor_1;No data;primary;full_ownership;garage, balcony;No data;No data;to_completion;ribbon;No data;internet, phone;entryphone;52.166275;21.177645;908776.46
110;3 pokoje 69,87m2 - Księcia Witolda, Rembertów;FLAT;Warszawa;Rembertów;681000;9747;69.87;2.0;2022;floor_1;boiler_room;primary;No data;balcony, garage;No data;No data;to_completion;apartment;brick;cable-television, internet, phone;closed_area, entryphone, monitoring;52.249462;21.167871;660368.96
111;2 pokoje na parterze z ogródkiem/ od dewelopera;FLAT;Warszawa;Białołęka;460000;9800;46.94;1.0;2022;ground_floor;gas;primary;full_ownership;balcony, garage, garden, lift;No data;No data;to_completion;block;brick;cable-television, internet;closed_area, entryphone;52.32899;21.00768;474223.14
112;2 pokojowe mieszkanie przy parku;FLAT;Warszawa;Włochy;724890;14600;49.65;1.0;2024;floor_4;No data;primary;No data;balcony, garage, two_storey, usable_room;No data;No data;to_completion;block;No data;cable-television, internet;entryphone, monitoring;52.198605;20.927866;692755.41
113;Mieszkanie w Inwestycji Apartamenty Ruczaj Z_3;FLAT;Warszawa;Wilanów;592384;8900;66.56;1.0;2019;floor_2;boiler_room;primary;full_ownership;balcony, basement, garage, terrace;No data;No data;to_completion;block;breezeblock;cable-television, internet;anti_burglary_door, closed_area, entryphone, monitoring;52.1462738;21.1186841;619577.2
114;Mieszkanie 61,35m2, 3 pokoje + 20m2 balkonu;FLAT;Warszawa;Włochy;722700;11780;61.35;2.0;2023;floor_1;boiler_room;primary;full_ownership;air_conditioning, balcony, garage, lift;12;No data;to_completion;apartment;silikat;cable-television, internet, phone;anti_burglary_door, closed_area, entryphone, monitoring;52.19921;20.915718;739339.42
115;4-pokojowe mieszkanie 90m2 + balkon;FLAT;Warszawa;Wola;1362478;15075;90.38;3.0;2023;floor_4;No data;primary;full_ownership;garage, balcony, lift;No data;No data;to_completion;No data;No data;No data;closed_area;52.23199;20.93373;1326640.5
116;Apartament Gotowy Do Aranżacji / Bez Prowizji;FLAT;Warszawa;Wola;6378017;25750;247.69;5.0;2023;floor_higher_10;urban;secondary;full_ownership;air_conditioning, balcony, garage, lift, terrace, two_storey, usable_room;No data;No data;to_completion;apartment;No data;cable-television, internet, phone;anti_burglary_door, closed_area, entryphone, monitoring;52.23159;20.96371;5308179.39
